[{"code":110101,"code_cities":1101,"name":"BAKONGAN","latitude":2.9622427,"longitude":97.4705935},{"code":110102,"code_cities":1101,"name":"KLUET UTARA","latitude":3.1221015,"longitude":97.3408535},{"code":110103,"code_cities":1101,"name":"KLUET SELATAN","latitude":3.0516577,"longitude":97.4597725},{"code":110104,"code_cities":1101,"name":"LABUHAN HAJI","latitude":3.5645593,"longitude":97.0175879},{"code":110105,"code_cities":1101,"name":"MEUKEK","latitude":3.5931213,"longitude":97.2221421},{"code":110106,"code_cities":1101,"name":"SAMADUA","latitude":null,"longitude":null},{"code":110107,"code_cities":1101,"name":"SAWANG","latitude":3.4129978,"longitude":97.1574784},{"code":110108,"code_cities":1101,"name":"TAPAKTUAN","latitude":null,"longitude":null},{"code":110109,"code_cities":1101,"name":"TRUMON","latitude":2.6344422,"longitude":97.7416703},{"code":110110,"code_cities":1101,"name":"PASI RAJA","latitude":null,"longitude":null},{"code":110111,"code_cities":1101,"name":"LABUHAN HAJI TIMUR","latitude":3.60394,"longitude":97.1251699},{"code":110112,"code_cities":1101,"name":"LABUHAN HAJI BARAT","latitude":3.5849934,"longitude":96.974604},{"code":110113,"code_cities":1101,"name":"KLUET TENGAH","latitude":3.4318905,"longitude":97.3084571},{"code":110114,"code_cities":1101,"name":"KLUET TIMUR","latitude":3.1710406,"longitude":97.4597725},{"code":110115,"code_cities":1101,"name":"BAKONGAN TIMUR","latitude":null,"longitude":null},{"code":110116,"code_cities":1101,"name":"TRUMON TIMUR","latitude":2.8905999,"longitude":97.8068851},{"code":110117,"code_cities":1101,"name":"KOTA BAHAGIA","latitude":3.011331,"longitude":97.5463885},{"code":110118,"code_cities":1101,"name":"TRUMON TENGAH","latitude":2.9014657,"longitude":97.6656625},{"code":110201,"code_cities":1102,"name":"LAWE ALAS","latitude":3.437859,"longitude":97.8177601},{"code":110202,"code_cities":1102,"name":"LAWE SIGALA-GALA","latitude":3.356981,"longitude":97.9266015},{"code":110203,"code_cities":1102,"name":"BAMBEL","latitude":3.4571553,"longitude":97.90482},{"code":110204,"code_cities":1102,"name":"BABUSSALAM","latitude":3.4930695,"longitude":97.8014482},{"code":110205,"code_cities":1102,"name":"BADAR","latitude":3.5781694,"longitude":97.8177601},{"code":110206,"code_cities":1102,"name":"BABUL MAKMUR","latitude":3.3165133,"longitude":97.991986},{"code":110207,"code_cities":1102,"name":"DARUL HASANAH","latitude":3.510025,"longitude":97.5680595},{"code":110208,"code_cities":1102,"name":"LAWE BULAN","latitude":3.5025424,"longitude":97.8667182},{"code":110209,"code_cities":1102,"name":"BUKIT TUSAM","latitude":3.4124449,"longitude":97.8667182},{"code":110210,"code_cities":1102,"name":"SEMADAM","latitude":3.3922677,"longitude":97.8884881},{"code":110211,"code_cities":1102,"name":"BABUL RAHMAH","latitude":3.2799084,"longitude":97.8912099},{"code":110212,"code_cities":1102,"name":"KETAMBE","latitude":3.6895489,"longitude":97.7199454},{"code":110213,"code_cities":1102,"name":"DELENG POKHKISEN","latitude":3.5376711,"longitude":97.8612767},{"code":110214,"code_cities":1102,"name":"LAWE SUMUR","latitude":3.4823238,"longitude":97.8884881},{"code":110215,"code_cities":1102,"name":"TANOH ALAS","latitude":3.2842446,"longitude":97.9729094},{"code":110216,"code_cities":1102,"name":"LEUSER","latitude":null,"longitude":null},{"code":110301,"code_cities":1103,"name":"DARUL AMAN","latitude":4.962811,"longitude":97.7090854},{"code":110302,"code_cities":1103,"name":"JULOK","latitude":5.0364109,"longitude":97.5897372},{"code":110303,"code_cities":1103,"name":"IDI RAYEUK","latitude":4.9623026,"longitude":97.7525352},{"code":110304,"code_cities":1103,"name":"BIREM BAYEUN","latitude":4.4792278,"longitude":97.8286368},{"code":110305,"code_cities":1103,"name":"SERBAJADI","latitude":3.3881187,"longitude":98.9355737},{"code":110306,"code_cities":1103,"name":"NURUSSALAM","latitude":4.978844,"longitude":97.6602365},{"code":110307,"code_cities":1103,"name":"PEUREULAK","latitude":4.7857577,"longitude":97.8939317},{"code":110308,"code_cities":1103,"name":"RANTAU SELAMAT","latitude":4.6231246,"longitude":97.7634019},{"code":110309,"code_cities":1103,"name":"SIMPANG ULIM","latitude":5.1088508,"longitude":97.5788975},{"code":110310,"code_cities":1103,"name":"RANTAU PEUREULAK","latitude":null,"longitude":null},{"code":110311,"code_cities":1103,"name":"PANTE BIDARI","latitude":4.8067536,"longitude":97.4898134},{"code":110312,"code_cities":1103,"name":"MADAT","latitude":5.1716814,"longitude":97.5138947},{"code":110313,"code_cities":1103,"name":"INDRA MAKMU","latitude":null,"longitude":null},{"code":110314,"code_cities":1103,"name":"IDI TUNONG","latitude":4.9162588,"longitude":97.725376},{"code":110315,"code_cities":1103,"name":"BANDA ALAM","latitude":4.8600813,"longitude":97.6873706},{"code":110316,"code_cities":1103,"name":"PEUDAWA","latitude":4.8791578,"longitude":97.8177601},{"code":110317,"code_cities":1103,"name":"PEUREULAK TIMUR","latitude":null,"longitude":null},{"code":110318,"code_cities":1103,"name":"PEUREULAK BARAT","latitude":4.8580773,"longitude":97.8612767},{"code":110319,"code_cities":1103,"name":"SUNGAI RAYA","latitude":4.6621644,"longitude":97.9374948},{"code":110320,"code_cities":1103,"name":"SIMPANG JERNIH","latitude":4.3787677,"longitude":97.6765157},{"code":110321,"code_cities":1103,"name":"DARUL IHSAN","latitude":4.9055839,"longitude":97.7579683},{"code":110322,"code_cities":1103,"name":"DARUL FALAH","latitude":5.0100403,"longitude":97.6385368},{"code":110323,"code_cities":1103,"name":"IDI TIMUR","latitude":4.9155004,"longitude":97.7905758},{"code":110324,"code_cities":1103,"name":"PEUNARON","latitude":4.6245398,"longitude":97.633113},{"code":110401,"code_cities":1104,"name":"LINGE","latitude":4.3835007,"longitude":97.2005806},{"code":110402,"code_cities":1104,"name":"SILIH NARA","latitude":4.6337129,"longitude":96.7279918},{"code":110403,"code_cities":1104,"name":"BEBESEN","latitude":4.6432619,"longitude":96.8029489},{"code":110407,"code_cities":1104,"name":"PEGASING","latitude":4.5102693,"longitude":96.7708138},{"code":110408,"code_cities":1104,"name":"BINTANG","latitude":4.5475154,"longitude":97.1574784},{"code":110410,"code_cities":1104,"name":"KETOL","latitude":4.8198555,"longitude":96.6210611},{"code":110411,"code_cities":1104,"name":"KEBAYAKAN","latitude":4.6477202,"longitude":96.8726295},{"code":110412,"code_cities":1104,"name":"KUTE PANANG","latitude":4.6845489,"longitude":96.7815237},{"code":110413,"code_cities":1104,"name":"CELALA","latitude":4.5520489,"longitude":96.6851982},{"code":110417,"code_cities":1104,"name":"LAUT TAWAR","latitude":null,"longitude":null},{"code":110418,"code_cities":1104,"name":"ATU LINTANG","latitude":4.4385305,"longitude":96.7815237},{"code":110419,"code_cities":1104,"name":"JAGONG JEGET","latitude":4.3879023,"longitude":96.7279918},{"code":110420,"code_cities":1104,"name":"BIES","latitude":4.6074963,"longitude":96.7868794},{"code":110421,"code_cities":1104,"name":"RUSIP ANTARA","latitude":4.7391058,"longitude":96.4503434},{"code":110501,"code_cities":1105,"name":"JOHAN PAHWALAN","latitude":null,"longitude":null},{"code":110502,"code_cities":1105,"name":"KAWAY XVI","latitude":4.2697285,"longitude":96.2163597},{"code":110503,"code_cities":1105,"name":"SUNGAI MAS","latitude":4.5776801,"longitude":96.1102943},{"code":110504,"code_cities":1105,"name":"WOYLA","latitude":4.3832356,"longitude":96.0785104},{"code":110505,"code_cities":1105,"name":"SAMATIGA","latitude":4.2302641,"longitude":96.0467429},{"code":110506,"code_cities":1105,"name":"BUBON","latitude":4.3011244,"longitude":96.1208926},{"code":110507,"code_cities":1105,"name":"ARONGAN LAMBALEK","latitude":4.3433438,"longitude":95.9515399},{"code":110508,"code_cities":1105,"name":"PANTE CEUREUMEN","latitude":null,"longitude":null},{"code":110509,"code_cities":1105,"name":"MEUREUBO","latitude":4.144079,"longitude":96.1540241},{"code":110510,"code_cities":1105,"name":"WOYLA BARAT","latitude":4.3940651,"longitude":96.0044121},{"code":110511,"code_cities":1105,"name":"WOYLA TIMUR","latitude":4.4752926,"longitude":96.0891032},{"code":110512,"code_cities":1105,"name":"PANTON REU","latitude":4.44359,"longitude":96.2057449},{"code":110601,"code_cities":1106,"name":"LHOONG","latitude":5.2669475,"longitude":95.2893433},{"code":110602,"code_cities":1106,"name":"LHOKNGA","latitude":5.4653142,"longitude":95.2579968},{"code":110603,"code_cities":1106,"name":"INDRAPURI","latitude":5.4218918,"longitude":95.4463322},{"code":110604,"code_cities":1106,"name":"SEULIMEUM","latitude":5.4724418,"longitude":95.624767},{"code":110605,"code_cities":1106,"name":"MONTASIK","latitude":5.465831,"longitude":95.4227312},{"code":110606,"code_cities":1106,"name":"SUKAMAKMUR","latitude":-6.6103239,"longitude":107.0185123},{"code":110607,"code_cities":1106,"name":"DARUL IMARAH","latitude":5.5013734,"longitude":95.3154784},{"code":110608,"code_cities":1106,"name":"PEUKAN BADA","latitude":5.5333804,"longitude":95.24233},{"code":110609,"code_cities":1106,"name":"MESJID RAYA","latitude":5.567565,"longitude":95.509247},{"code":110610,"code_cities":1106,"name":"INGIN JAYA","latitude":5.5113567,"longitude":95.3677844},{"code":110611,"code_cities":1106,"name":"KUTA BARO","latitude":5.5474232,"longitude":95.4253757},{"code":110612,"code_cities":1106,"name":"DARUSSALAM","latitude":5.5945451,"longitude":95.4201377},{"code":110613,"code_cities":1106,"name":"PULO ACEH","latitude":5.6970368,"longitude":95.0911062},{"code":110614,"code_cities":1106,"name":"LEMBAH SEULAWAH","latitude":5.3882013,"longitude":95.7089241},{"code":110615,"code_cities":1106,"name":"KOTA JANTHO","latitude":5.1595324,"longitude":95.6878736},{"code":110616,"code_cities":1106,"name":"KOTA COT GLIE","latitude":null,"longitude":null},{"code":110617,"code_cities":1106,"name":"KUTA MALAKA","latitude":5.4276233,"longitude":95.38872},{"code":110618,"code_cities":1106,"name":"SIMPANG TIGA","latitude":5.4488701,"longitude":95.3468563},{"code":110619,"code_cities":1106,"name":"DARUL KAMAL","latitude":5.4647637,"longitude":95.3207069},{"code":110620,"code_cities":1106,"name":"BAITUSSALAM","latitude":5.6053001,"longitude":95.38872},{"code":110621,"code_cities":1106,"name":"KRUENG BARONA JAYA","latitude":5.5505849,"longitude":95.3651679},{"code":110622,"code_cities":1106,"name":"LEUPUNG","latitude":5.392388,"longitude":95.255257},{"code":110623,"code_cities":1106,"name":"BLANG BINTANG","latitude":5.5056119,"longitude":95.4253757},{"code":110703,"code_cities":1107,"name":"BATEE","latitude":5.417769,"longitude":95.8881542},{"code":110704,"code_cities":1107,"name":"DELIMA","latitude":5.3394768,"longitude":95.9039944},{"code":110705,"code_cities":1107,"name":"GEUMPANG","latitude":4.8238623,"longitude":96.195132},{"code":110706,"code_cities":1107,"name":"GEULUMPANG TIGA","latitude":null,"longitude":null},{"code":110707,"code_cities":1107,"name":"INDRA JAYA","latitude":5.0166816,"longitude":95.4149003},{"code":110708,"code_cities":1107,"name":"KEMBANG TANJONG","latitude":5.31218,"longitude":96.0361574},{"code":110709,"code_cities":1107,"name":"KOTA SIGLI","latitude":5.3847763,"longitude":95.9602371},{"code":110711,"code_cities":1107,"name":"MILA","latitude":5.2876435,"longitude":95.8828751},{"code":110712,"code_cities":1107,"name":"MUARA TIGA","latitude":5.5126065,"longitude":95.7932008},{"code":110713,"code_cities":1107,"name":"MUTIARA","latitude":5.2867372,"longitude":95.9779702},{"code":110714,"code_cities":1107,"name":"PADANG TIJI","latitude":5.3453369,"longitude":95.8353837},{"code":110715,"code_cities":1107,"name":"PEUKAN BARO","latitude":5.3284568,"longitude":95.9673967},{"code":110716,"code_cities":1107,"name":"PIDIE","latitude":5.3704132,"longitude":95.9356872},{"code":110717,"code_cities":1107,"name":"SAKTI","latitude":5.2560466,"longitude":95.9251211},{"code":110718,"code_cities":1107,"name":"SIMPANG TIGA","latitude":5.4488701,"longitude":95.3468563},{"code":110719,"code_cities":1107,"name":"TANGSE","latitude":4.9914298,"longitude":95.940971},{"code":110721,"code_cities":1107,"name":"TIRO\/TRUSEB","latitude":5.1777852,"longitude":95.9621106},{"code":110722,"code_cities":1107,"name":"KEUMALA","latitude":5.2306075,"longitude":95.8670405},{"code":110724,"code_cities":1107,"name":"MUTIARA TIMUR","latitude":5.255443,"longitude":95.9885456},{"code":110725,"code_cities":1107,"name":"GRONG-GRONG","latitude":null,"longitude":null},{"code":110727,"code_cities":1107,"name":"MANE","latitude":4.8867326,"longitude":96.0891032},{"code":110729,"code_cities":1107,"name":"GLUMPANG BARO","latitude":null,"longitude":null},{"code":110731,"code_cities":1107,"name":"TITEUE","latitude":5.2094331,"longitude":95.9092754},{"code":110801,"code_cities":1108,"name":"BAKTIYA","latitude":5.0901929,"longitude":97.4056928},{"code":110802,"code_cities":1108,"name":"DEWANTARA","latitude":5.2395677,"longitude":97.0175879},{"code":110803,"code_cities":1108,"name":"KUTA MAKMUR","latitude":5.0943003,"longitude":97.0390904},{"code":110804,"code_cities":1108,"name":"LHOKSUKON","latitude":5.0388975,"longitude":97.3732655},{"code":110805,"code_cities":1108,"name":"MATANGKULI","latitude":5.0348857,"longitude":97.2706807},{"code":110806,"code_cities":1108,"name":"MUARA BATU","latitude":5.245533,"longitude":96.9477532},{"code":110807,"code_cities":1108,"name":"MEURAH MULIA","latitude":5.0717161,"longitude":97.2113605},{"code":110808,"code_cities":1108,"name":"SAMUDERA","latitude":5.1284218,"longitude":97.2275336},{"code":110809,"code_cities":1108,"name":"SEUNUDDON","latitude":5.1934088,"longitude":97.4273195},{"code":110810,"code_cities":1108,"name":"SYAMTALIRA ARON","latitude":5.1073646,"longitude":97.2598913},{"code":110811,"code_cities":1108,"name":"SYAMTALIRA BAYU","latitude":5.0771854,"longitude":97.184414},{"code":110812,"code_cities":1108,"name":"TANAH LUAS","latitude":4.969134,"longitude":97.1467072},{"code":110813,"code_cities":1108,"name":"TANAH PASIR","latitude":5.1384041,"longitude":97.2598913},{"code":110814,"code_cities":1108,"name":"T. JAMBO AYE","latitude":null,"longitude":null},{"code":110815,"code_cities":1108,"name":"SAWANG","latitude":3.4129978,"longitude":97.1574784},{"code":110816,"code_cities":1108,"name":"NISAM","latitude":5.1773651,"longitude":97.0175879},{"code":110817,"code_cities":1108,"name":"COT GIREK","latitude":4.8331764,"longitude":97.330053},{"code":110818,"code_cities":1108,"name":"LANGKAHAN","latitude":4.8729315,"longitude":97.4597725},{"code":110819,"code_cities":1108,"name":"BAKTIYA BARAT","latitude":5.1323054,"longitude":97.3408535},{"code":110820,"code_cities":1108,"name":"PAYA BAKONG","latitude":4.9165104,"longitude":97.2437105},{"code":110821,"code_cities":1108,"name":"NIBONG","latitude":5.0328724,"longitude":97.2194466},{"code":110822,"code_cities":1108,"name":"SIMPANG KRAMAT","latitude":null,"longitude":null},{"code":110823,"code_cities":1108,"name":"LAPANG","latitude":5.148385,"longitude":97.2922646},{"code":110824,"code_cities":1108,"name":"PIRAK TIMUR","latitude":null,"longitude":null},{"code":110825,"code_cities":1108,"name":"GEUREDONG PASE","latitude":null,"longitude":null},{"code":110826,"code_cities":1108,"name":"BANDA BARO","latitude":5.193444,"longitude":96.969233},{"code":110827,"code_cities":1108,"name":"NISAM ANTARA","latitude":5.0331824,"longitude":96.9531225},{"code":110901,"code_cities":1109,"name":"SIMEULUE TENGAH","latitude":2.6241186,"longitude":96.0467429},{"code":110902,"code_cities":1109,"name":"SALANG","latitude":2.6644485,"longitude":95.8775964},{"code":110903,"code_cities":1109,"name":"TEUPAH BARAT","latitude":2.5049959,"longitude":96.2163597},{"code":110904,"code_cities":1109,"name":"SIMEULUE TIMUR","latitude":2.5143818,"longitude":96.3119743},{"code":110905,"code_cities":1109,"name":"TELUK DALAM","latitude":2.6137826,"longitude":96.1420947},{"code":110906,"code_cities":1109,"name":"SIMEULUE BARAT","latitude":2.7830038,"longitude":95.9198387},{"code":110907,"code_cities":1109,"name":"TEUPAH SELATAN","latitude":2.3860301,"longitude":96.429036},{"code":110908,"code_cities":1109,"name":"ALAPAN","latitude":null,"longitude":null},{"code":110909,"code_cities":1109,"name":"TEUPAH TENGAH","latitude":2.4159369,"longitude":96.333242},{"code":110910,"code_cities":1109,"name":"SIMEULUE CUT","latitude":2.5999703,"longitude":95.9356872},{"code":111001,"code_cities":1110,"name":"PULAU BANYAK","latitude":2.3198851,"longitude":97.413802},{"code":111002,"code_cities":1110,"name":"SIMPANG KANAN","latitude":2.4264937,"longitude":98.0356087},{"code":111004,"code_cities":1110,"name":"SINGKIL","latitude":2.2836143,"longitude":97.79873},{"code":111006,"code_cities":1110,"name":"GUNUNG MERIAH","latitude":2.3877286,"longitude":97.9701846},{"code":111009,"code_cities":1110,"name":"KOTA BAHARU","latitude":2.4569833,"longitude":97.8503951},{"code":111010,"code_cities":1110,"name":"SINGKIL UTARA","latitude":2.2996939,"longitude":97.9810845},{"code":111011,"code_cities":1110,"name":"DANAU PARIS","latitude":2.298952,"longitude":98.1120116},{"code":111012,"code_cities":1110,"name":"SURO MAKMUR","latitude":null,"longitude":null},{"code":111013,"code_cities":1110,"name":"SINGKOHOR","latitude":2.5349325,"longitude":97.9374948},{"code":111014,"code_cities":1110,"name":"KUALA BARU","latitude":2.3891028,"longitude":97.730807},{"code":111016,"code_cities":1110,"name":"PULAU BANYAK BARAT","latitude":2.1472057,"longitude":97.286868},{"code":111101,"code_cities":1111,"name":"SAMALANGA","latitude":5.0804889,"longitude":96.375799},{"code":111102,"code_cities":1111,"name":"JEUNIEB","latitude":5.0794303,"longitude":96.482318},{"code":111103,"code_cities":1111,"name":"PEUDADA","latitude":5.0476301,"longitude":96.5569882},{"code":111104,"code_cities":1111,"name":"JEUMPA","latitude":5.1605583,"longitude":96.6531216},{"code":111105,"code_cities":1111,"name":"PEUSANGAN","latitude":5.2008992,"longitude":96.7601057},{"code":111106,"code_cities":1111,"name":"MAKMUR","latitude":5.1377969,"longitude":96.8458204},{"code":111107,"code_cities":1111,"name":"GANDAPURA","latitude":null,"longitude":null},{"code":111108,"code_cities":1111,"name":"PANDRAH","latitude":5.0591509,"longitude":96.4396888},{"code":111109,"code_cities":1111,"name":"JULI","latitude":5.0463259,"longitude":96.6851982},{"code":111110,"code_cities":1111,"name":"JANGKA","latitude":5.242166,"longitude":96.7815237},{"code":111111,"code_cities":1111,"name":"SIMPANG MAMPLAM","latitude":5.1007814,"longitude":96.418385},{"code":111112,"code_cities":1111,"name":"PEULIMBANG","latitude":5.0378188,"longitude":96.5036433},{"code":111113,"code_cities":1111,"name":"KOTA JUANG","latitude":5.2065989,"longitude":96.7119409},{"code":111114,"code_cities":1111,"name":"KUALA","latitude":5.2272338,"longitude":96.722641},{"code":111115,"code_cities":1111,"name":"PEUSANGAN SIBLAH KRUENG","latitude":5.0761383,"longitude":96.8029489},{"code":111116,"code_cities":1111,"name":"PEUSANGAN SELATAN","latitude":null,"longitude":null},{"code":111117,"code_cities":1111,"name":"KUTA BLANG","latitude":5.2053351,"longitude":96.8297403},{"code":111201,"code_cities":1112,"name":"BLANG PIDIE","latitude":3.7431465,"longitude":96.8326488},{"code":111202,"code_cities":1112,"name":"TANGAN-TANGAN","latitude":3.6959787,"longitude":96.9423844},{"code":111203,"code_cities":1112,"name":"MANGGENG","latitude":3.6206532,"longitude":96.9155468},{"code":111204,"code_cities":1112,"name":"SUSOH","latitude":3.7220621,"longitude":96.8297403},{"code":111205,"code_cities":1112,"name":"KUALA BATEE","latitude":3.9395046,"longitude":96.8136642},{"code":111206,"code_cities":1112,"name":"BABAH ROT","latitude":3.933333,"longitude":96.7},{"code":111207,"code_cities":1112,"name":"SETIA","latitude":3.7015625,"longitude":96.8726295},{"code":111208,"code_cities":1112,"name":"JEUMPA","latitude":5.1605583,"longitude":96.6531216},{"code":111209,"code_cities":1112,"name":"LEMBAH SABIL","latitude":3.6248985,"longitude":97.0175879},{"code":111301,"code_cities":1113,"name":"BLANGKEJEREN","latitude":3.9967196,"longitude":97.3416152},{"code":111302,"code_cities":1113,"name":"KUTAPANJANG","latitude":null,"longitude":null},{"code":111303,"code_cities":1113,"name":"RIKIT GAIB","latitude":4.1382779,"longitude":97.286868},{"code":111304,"code_cities":1113,"name":"TERANGUN","latitude":3.9990545,"longitude":96.9638624},{"code":111305,"code_cities":1113,"name":"PINING","latitude":3.9928933,"longitude":97.654811},{"code":111306,"code_cities":1113,"name":"BLANGPEGAYON","latitude":null,"longitude":null},{"code":111307,"code_cities":1113,"name":"PUTERI BETUNG","latitude":null,"longitude":null},{"code":111308,"code_cities":1113,"name":"DABUN GELANG","latitude":3.9335745,"longitude":97.5030669},{"code":111309,"code_cities":1113,"name":"BLANGJERANGO","latitude":null,"longitude":null},{"code":111310,"code_cities":1113,"name":"TERIPE JAYA","latitude":null,"longitude":null},{"code":111311,"code_cities":1113,"name":"PANTAN CUACA","latitude":4.1797271,"longitude":97.2005806},{"code":111401,"code_cities":1114,"name":"TEUNOM","latitude":4.4360296,"longitude":95.8775964},{"code":111402,"code_cities":1114,"name":"KRUENG SABEE","latitude":4.8268587,"longitude":95.8564864},{"code":111403,"code_cities":1114,"name":"SETIA BHAKTI","latitude":null,"longitude":null},{"code":111404,"code_cities":1114,"name":"SAMPOINIET","latitude":4.9331768,"longitude":95.4987565},{"code":111405,"code_cities":1114,"name":"JAYA","latitude":5.1617309,"longitude":95.435853},{"code":111406,"code_cities":1114,"name":"PANGA","latitude":4.6419779,"longitude":95.7932008},{"code":111407,"code_cities":1114,"name":"INDRA JAYA","latitude":5.0166816,"longitude":95.4149003},{"code":111408,"code_cities":1114,"name":"DARUL HIKMAH","latitude":4.8907771,"longitude":95.624767},{"code":111409,"code_cities":1114,"name":"PASIE RAYA","latitude":4.5994686,"longitude":95.9621106},{"code":111501,"code_cities":1115,"name":"KUALA","latitude":5.2272338,"longitude":96.722641},{"code":111502,"code_cities":1115,"name":"SEUNAGAN","latitude":4.2385215,"longitude":96.2907139},{"code":111503,"code_cities":1115,"name":"SEUNAGAN TIMUR","latitude":4.3095131,"longitude":96.3438785},{"code":111504,"code_cities":1115,"name":"BEUTONG","latitude":4.45,"longitude":96.55},{"code":111505,"code_cities":1115,"name":"DARUL MAKMUR","latitude":4.0025819,"longitude":96.5356449},{"code":111506,"code_cities":1115,"name":"SUKA MAKMUE","latitude":4.1772002,"longitude":96.3119743},{"code":111507,"code_cities":1115,"name":"KUALA PESISIR","latitude":4.0964458,"longitude":96.2269763},{"code":111508,"code_cities":1115,"name":"TADU RAYA","latitude":4.0646951,"longitude":96.3864428},{"code":111509,"code_cities":1115,"name":"TRIPA MAKMUR","latitude":3.9325119,"longitude":96.418385},{"code":111510,"code_cities":1115,"name":"BEUTONG ATEUH BANGGALANG","latitude":4.4613091,"longitude":96.5249759},{"code":111601,"code_cities":1116,"name":"MANYAK PAYED","latitude":4.4257284,"longitude":98.0574299},{"code":111602,"code_cities":1116,"name":"BENDAHARA","latitude":4.4039038,"longitude":98.1884949},{"code":111603,"code_cities":1116,"name":"KARANG BARU","latitude":4.3378413,"longitude":98.0717968},{"code":111604,"code_cities":1116,"name":"SERUWAY","latitude":4.360689,"longitude":98.184624},{"code":111605,"code_cities":1116,"name":"KOTA KUALASINPANG","latitude":null,"longitude":null},{"code":111606,"code_cities":1116,"name":"KEJURUAN MUDA","latitude":4.2123421,"longitude":98.0247005},{"code":111607,"code_cities":1116,"name":"TAMIANG HULU","latitude":4.1534043,"longitude":97.8286368},{"code":111608,"code_cities":1116,"name":"RANTAU","latitude":4.3030298,"longitude":98.101092},{"code":111609,"code_cities":1116,"name":"BANDA MULIA","latitude":4.4451675,"longitude":98.1447804},{"code":111610,"code_cities":1116,"name":"BANDAR PUSAKA","latitude":4.2854152,"longitude":97.8395151},{"code":111611,"code_cities":1116,"name":"TENGGULUN","latitude":3.9904163,"longitude":97.9157099},{"code":111612,"code_cities":1116,"name":"SEKERAK","latitude":4.3252274,"longitude":97.9266015},{"code":111701,"code_cities":1117,"name":"PINTU RIME GAYO","latitude":4.880216,"longitude":96.7708138},{"code":111702,"code_cities":1117,"name":"PERMATA","latitude":4.837253,"longitude":96.9423844},{"code":111703,"code_cities":1117,"name":"SYIAH UTAMA","latitude":4.6502384,"longitude":97.1359377},{"code":111704,"code_cities":1117,"name":"BANDAR","latitude":4.703412,"longitude":96.9531225},{"code":111705,"code_cities":1117,"name":"BUKIT","latitude":4.7248188,"longitude":96.8672668},{"code":111706,"code_cities":1117,"name":"WIH PESAM","latitude":4.7254517,"longitude":96.8029489},{"code":111707,"code_cities":1117,"name":"TIMANG GAJAH","latitude":4.7668045,"longitude":96.7815237},{"code":111708,"code_cities":1117,"name":"BENER KELIPAH","latitude":4.7706153,"longitude":96.9155468},{"code":111709,"code_cities":1117,"name":"MESIDAH","latitude":4.7540464,"longitude":97.0283383},{"code":111710,"code_cities":1117,"name":"GAJAH PUTIH","latitude":4.8081912,"longitude":96.7601057},{"code":111801,"code_cities":1118,"name":"MEUREUDU","latitude":4.9882841,"longitude":96.2800864},{"code":111802,"code_cities":1118,"name":"ULIM","latitude":5.2006114,"longitude":96.2853999},{"code":111803,"code_cities":1118,"name":"JANGKA BUAYA","latitude":null,"longitude":null},{"code":111804,"code_cities":1118,"name":"BANDAR DUA","latitude":5.0915766,"longitude":96.3013432},{"code":111805,"code_cities":1118,"name":"MEURAH DUA","latitude":5.2327384,"longitude":96.2601989},{"code":111806,"code_cities":1118,"name":"BANDAR BARU","latitude":5.1765805,"longitude":96.0891032},{"code":111807,"code_cities":1118,"name":"PANTERAJA","latitude":5.253903,"longitude":96.1473964},{"code":111808,"code_cities":1118,"name":"TRIENGGADENG","latitude":5.2070047,"longitude":96.1633042},{"code":117101,"code_cities":1171,"name":"BAITURRAHMAN","latitude":5.5457794,"longitude":95.3180926},{"code":117102,"code_cities":1171,"name":"KUTA ALAM","latitude":5.5640132,"longitude":95.3259358},{"code":117103,"code_cities":1171,"name":"MEURAXA","latitude":5.5538338,"longitude":95.2945694},{"code":117104,"code_cities":1171,"name":"SYIAH KUALA","latitude":5.5847498,"longitude":95.3468563},{"code":117105,"code_cities":1171,"name":"LUENG BATA","latitude":5.5404101,"longitude":95.3337801},{"code":117106,"code_cities":1171,"name":"KUTA RAJA","latitude":5.570634,"longitude":95.3167855},{"code":117107,"code_cities":1171,"name":"BANDA RAYA","latitude":5.5249139,"longitude":95.3128644},{"code":117108,"code_cities":1171,"name":"JAYA BARU","latitude":5.5355089,"longitude":95.2971826},{"code":117109,"code_cities":1171,"name":"ULEE KARENG","latitude":5.5507266,"longitude":95.3494719},{"code":117201,"code_cities":1172,"name":"SUKAKARYA","latitude":5.8477312,"longitude":95.2632201},{"code":117202,"code_cities":1172,"name":"SUKAJAYA","latitude":5.7999089,"longitude":95.3207069},{"code":117301,"code_cities":1173,"name":"MUARA DUA","latitude":5.1605691,"longitude":97.1305536},{"code":117302,"code_cities":1173,"name":"BANDA SAKTI","latitude":5.1811638,"longitude":97.1413222},{"code":117303,"code_cities":1173,"name":"BLANG MANGAT","latitude":5.1191601,"longitude":97.1305536},{"code":117304,"code_cities":1173,"name":"MUARA SATU","latitude":5.1973717,"longitude":97.0821162},{"code":117401,"code_cities":1174,"name":"LANGSA TIMUR","latitude":4.4466045,"longitude":98.013794},{"code":117402,"code_cities":1174,"name":"LANGSA BARAT","latitude":4.5080981,"longitude":97.991986},{"code":117403,"code_cities":1174,"name":"LANGSA KOTA","latitude":4.4725348,"longitude":97.9756343},{"code":117404,"code_cities":1174,"name":"LANGSA LAMA","latitude":4.4522391,"longitude":97.9647353},{"code":117405,"code_cities":1174,"name":"LANGSA BARO","latitude":4.4883846,"longitude":97.9266015},{"code":117501,"code_cities":1175,"name":"SIMPANG KIRI","latitude":2.6822056,"longitude":97.9701846},{"code":117502,"code_cities":1175,"name":"PENANGGALAN","latitude":2.6520337,"longitude":98.068343},{"code":117503,"code_cities":1175,"name":"RUNDENG","latitude":2.6928351,"longitude":97.8503951},{"code":117504,"code_cities":1175,"name":"SULTAN DAULAT","latitude":2.7910228,"longitude":97.9157099},{"code":117505,"code_cities":1175,"name":"LONGKIB","latitude":2.5651327,"longitude":97.8177601},{"code":120101,"code_cities":1201,"name":"BARUS","latitude":2.0200601,"longitude":98.4129396},{"code":120102,"code_cities":1201,"name":"SORKAM","latitude":1.9170949,"longitude":98.6710603},{"code":120103,"code_cities":1201,"name":"PANDAN","latitude":1.689785,"longitude":98.8417888},{"code":120104,"code_cities":1201,"name":"PINANGSORI","latitude":null,"longitude":null},{"code":120105,"code_cities":1201,"name":"MANDUAMAS","latitude":2.1812448,"longitude":98.2431747},{"code":120106,"code_cities":1201,"name":"KOLANG","latitude":1.8685224,"longitude":98.7260927},{"code":120107,"code_cities":1201,"name":"TAPIAN NAULI","latitude":1.7911565,"longitude":98.770147},{"code":120108,"code_cities":1201,"name":"SIBABANGUN","latitude":1.5883012,"longitude":99.0018424},{"code":120109,"code_cities":1201,"name":"SOSORGADONG","latitude":null,"longitude":null},{"code":120110,"code_cities":1201,"name":"SORKAM BARAT","latitude":1.9176519,"longitude":98.5611142},{"code":120111,"code_cities":1201,"name":"SIRANDORUNG","latitude":2.102979,"longitude":98.3307468},{"code":120112,"code_cities":1201,"name":"ANDAM DEWI","latitude":2.0735552,"longitude":98.385532},{"code":120113,"code_cities":1201,"name":"SITAHUIS","latitude":1.8005242,"longitude":98.8252502},{"code":120114,"code_cities":1201,"name":"TUKKA","latitude":1.7133267,"longitude":98.9466146},{"code":120115,"code_cities":1201,"name":"BADIRI","latitude":1.5985142,"longitude":98.8583309},{"code":120116,"code_cities":1201,"name":"PASARIBU TOBING","latitude":1.9849758,"longitude":98.6380598},{"code":120117,"code_cities":1201,"name":"BARUS UTARA","latitude":2.0587362,"longitude":98.434873},{"code":120118,"code_cities":1201,"name":"SUKA BANGUN","latitude":null,"longitude":null},{"code":120119,"code_cities":1201,"name":"LUMUT","latitude":1.514724,"longitude":98.938766},{"code":120120,"code_cities":1201,"name":"SARUDIK","latitude":1.7425426,"longitude":98.8693609},{"code":120201,"code_cities":1202,"name":"TARUTUNG","latitude":2.0118822,"longitude":98.9797712},{"code":120202,"code_cities":1202,"name":"SIATAS BARITA","latitude":2.0117998,"longitude":99.0460525},{"code":120203,"code_cities":1202,"name":"ADIAN KOTING","latitude":null,"longitude":null},{"code":120204,"code_cities":1202,"name":"SIPOHOLON","latitude":2.0610237,"longitude":98.9024603},{"code":120205,"code_cities":1202,"name":"PAHAE JULU","latitude":1.8667206,"longitude":99.0792263},{"code":120206,"code_cities":1202,"name":"PAHAE JAE","latitude":1.8277102,"longitude":99.1677572},{"code":120207,"code_cities":1202,"name":"SIMANGUMBAN","latitude":1.7600593,"longitude":99.2231387},{"code":120208,"code_cities":1202,"name":"PURBA TUA","latitude":null,"longitude":null},{"code":120209,"code_cities":1202,"name":"SIBORONG-BORONG","latitude":null,"longitude":null},{"code":120210,"code_cities":1202,"name":"PAGARAN","latitude":2.177468,"longitude":98.9024603},{"code":120211,"code_cities":1202,"name":"PARMONANGAN","latitude":2.0810326,"longitude":98.7921836},{"code":120212,"code_cities":1202,"name":"SIPAHUTAR","latitude":2.1565867,"longitude":99.1456153},{"code":120213,"code_cities":1202,"name":"PANGARIBUAN","latitude":2.005759,"longitude":99.16256},{"code":120214,"code_cities":1202,"name":"GAROGA","latitude":2.000562,"longitude":99.3229213},{"code":120215,"code_cities":1202,"name":"MUARA","latitude":2.3279397,"longitude":98.9631789},{"code":120301,"code_cities":1203,"name":"ANGKOLA BARAT","latitude":null,"longitude":null},{"code":120302,"code_cities":1203,"name":"BATANG TORU","latitude":1.5592261,"longitude":99.0792263},{"code":120303,"code_cities":1203,"name":"ANGKOLA TIMUR","latitude":1.4815822,"longitude":99.3451118},{"code":120304,"code_cities":1203,"name":"SIPIROK","latitude":1.616009,"longitude":99.2342196},{"code":120305,"code_cities":1203,"name":"SAIPAR DOLOK HOLE","latitude":1.8456947,"longitude":99.4117197},{"code":120306,"code_cities":1203,"name":"ANGKOLA SELATAN","latitude":1.3297254,"longitude":99.1677572},{"code":120307,"code_cities":1203,"name":"BATANG ANGKOLA","latitude":1.2153324,"longitude":99.2563859},{"code":120314,"code_cities":1203,"name":"ARSE","latitude":1.7114104,"longitude":99.3451118},{"code":120320,"code_cities":1203,"name":"MARANCAR","latitude":1.516667,"longitude":99.166667},{"code":120321,"code_cities":1203,"name":"SAYUR MATINGGI","latitude":1.1393229,"longitude":99.3007367},{"code":120322,"code_cities":1203,"name":"AEK BILAH","latitude":1.9800866,"longitude":99.5228528},{"code":120329,"code_cities":1203,"name":"MUARA BATANG TORU","latitude":1.3688314,"longitude":98.9024603},{"code":120330,"code_cities":1203,"name":"TANO TOMBANGAN ANGKOLA","latitude":1.0137277,"longitude":99.3922868},{"code":120331,"code_cities":1203,"name":"ANGKOLA SANGKUNUR","latitude":1.368332,"longitude":99.0349977},{"code":120332,"code_cities":1203,"name":"ANGKOLA MUARA TAIS","latitude":null,"longitude":null},{"code":120405,"code_cities":1204,"name":"HILIDUHO","latitude":1.2493425,"longitude":97.5355555},{"code":120406,"code_cities":1204,"name":"GIDO","latitude":1.1346112,"longitude":97.6873706},{"code":120410,"code_cities":1204,"name":"IDANOGAWO","latitude":null,"longitude":null},{"code":120411,"code_cities":1204,"name":"BAWOLATO","latitude":0.9539293,"longitude":97.8503951},{"code":120420,"code_cities":1204,"name":"HILISERANGKAI","latitude":null,"longitude":null},{"code":120421,"code_cities":1204,"name":"BOTOMUZOI","latitude":1.1730878,"longitude":97.5355555},{"code":120427,"code_cities":1204,"name":"ULUGAWO","latitude":0.9826667,"longitude":97.7090854},{"code":120428,"code_cities":1204,"name":"MA'U","latitude":null,"longitude":null},{"code":120429,"code_cities":1204,"name":"SOMOLO-MOLO","latitude":null,"longitude":null},{"code":120435,"code_cities":1204,"name":"SOGAE'ADU","latitude":null,"longitude":null},{"code":120501,"code_cities":1205,"name":"BAHOROK","latitude":null,"longitude":null},{"code":120502,"code_cities":1205,"name":"SALAPIAN","latitude":3.4838956,"longitude":98.2869478},{"code":120503,"code_cities":1205,"name":"KUALA","latitude":5.2272338,"longitude":96.722641},{"code":120504,"code_cities":1205,"name":"SEI BINGEI","latitude":null,"longitude":null},{"code":120505,"code_cities":1205,"name":"BINJAI","latitude":3.6728406,"longitude":98.4513272},{"code":120506,"code_cities":1205,"name":"SELESAI","latitude":3.60291,"longitude":98.4184224},{"code":120507,"code_cities":1205,"name":"STABAT","latitude":3.750767,"longitude":98.4529711},{"code":120508,"code_cities":1205,"name":"WAMPU","latitude":3.6840227,"longitude":98.3307468},{"code":120509,"code_cities":1205,"name":"SECANGGANG","latitude":3.8831443,"longitude":98.5501283},{"code":120510,"code_cities":1205,"name":"HINAI","latitude":3.8339692,"longitude":98.4293891},{"code":120511,"code_cities":1205,"name":"TANJUNG PURA","latitude":3.8985702,"longitude":98.4207987},{"code":120512,"code_cities":1205,"name":"PADANG TUALANG","latitude":3.8146839,"longitude":98.3417006},{"code":120513,"code_cities":1205,"name":"GEBANG","latitude":3.9656536,"longitude":98.3745717},{"code":120514,"code_cities":1205,"name":"BABALAN","latitude":4.0367487,"longitude":98.3417006},{"code":120515,"code_cities":1205,"name":"PANGKALAN SUSU","latitude":4.0986157,"longitude":98.2322355},{"code":120516,"code_cities":1205,"name":"BESITANG","latitude":3.9887138,"longitude":98.090174},{"code":120517,"code_cities":1205,"name":"SEI LEPAN","latitude":3.8068124,"longitude":98.1120116},{"code":120518,"code_cities":1205,"name":"BERANDAN BARAT","latitude":null,"longitude":null},{"code":120519,"code_cities":1205,"name":"BATANG SERANGAN","latitude":3.6669367,"longitude":98.0028892},{"code":120520,"code_cities":1205,"name":"SAWIT SEBERANG","latitude":3.805564,"longitude":98.2431747},{"code":120521,"code_cities":1205,"name":"SIRAPIT","latitude":3.561384,"longitude":98.3006322},{"code":120522,"code_cities":1205,"name":"KUTAMBARU","latitude":3.3240507,"longitude":98.2869478},{"code":120523,"code_cities":1205,"name":"PEMATANG JAYA","latitude":4.2109781,"longitude":98.1557066},{"code":120601,"code_cities":1206,"name":"KABANJAHE","latitude":3.1050237,"longitude":98.4985048},{"code":120602,"code_cities":1206,"name":"BERASTAGI","latitude":3.185291,"longitude":98.504913},{"code":120603,"code_cities":1206,"name":"BARUSJAHE","latitude":3.1325174,"longitude":98.5830907},{"code":120604,"code_cities":1206,"name":"TIGAPANAH","latitude":3.0774333,"longitude":98.5248628},{"code":120605,"code_cities":1206,"name":"MEREK","latitude":2.9649832,"longitude":98.4622987},{"code":120606,"code_cities":1206,"name":"MUNTE","latitude":3.0547314,"longitude":98.385532},{"code":120607,"code_cities":1206,"name":"JUHAR","latitude":3.0059333,"longitude":98.2869478},{"code":120608,"code_cities":1206,"name":"TIGABINANGA","latitude":null,"longitude":null},{"code":120609,"code_cities":1206,"name":"LAUBALENG","latitude":3.1365458,"longitude":98.0792577},{"code":120610,"code_cities":1206,"name":"MARDINGDING","latitude":3.2316343,"longitude":98.0083414},{"code":120611,"code_cities":1206,"name":"PAYUNG","latitude":3.1292039,"longitude":98.3800516},{"code":120612,"code_cities":1206,"name":"SIMPANG EMPAT","latitude":2.8755633,"longitude":99.745565},{"code":120613,"code_cities":1206,"name":"KUTABULUH","latitude":null,"longitude":null},{"code":120614,"code_cities":1206,"name":"DOLAT RAYAT","latitude":3.1676866,"longitude":98.5336525},{"code":120615,"code_cities":1206,"name":"MERDEKA","latitude":3.207814,"longitude":98.4897345},{"code":120616,"code_cities":1206,"name":"NAMAN TERAN","latitude":3.2034329,"longitude":98.4184224},{"code":120617,"code_cities":1206,"name":"TIGANDERKET","latitude":3.1643763,"longitude":98.3307468},{"code":120701,"code_cities":1207,"name":"GUNUNG MERIAH","latitude":2.3877286,"longitude":97.9701846},{"code":120702,"code_cities":1207,"name":"TANJUNG MORAWA","latitude":3.5190779,"longitude":98.8142264},{"code":120703,"code_cities":1207,"name":"SIBOLANGIT","latitude":3.3217968,"longitude":98.5501283},{"code":120704,"code_cities":1207,"name":"KUTALIMBARU","latitude":3.4118784,"longitude":98.5171802},{"code":120705,"code_cities":1207,"name":"PANCUR BATU","latitude":3.4712349,"longitude":98.5830907},{"code":120706,"code_cities":1207,"name":"NAMORAMBE","latitude":null,"longitude":null},{"code":120707,"code_cities":1207,"name":"SIBIRU-BIRU","latitude":null,"longitude":null},{"code":120708,"code_cities":1207,"name":"STM HILIR","latitude":null,"longitude":null},{"code":120709,"code_cities":1207,"name":"BANGUN PURBA","latitude":3.3593222,"longitude":98.8142264},{"code":120719,"code_cities":1207,"name":"GALANG","latitude":3.4312761,"longitude":98.9011223},{"code":120720,"code_cities":1207,"name":"STM HULU","latitude":null,"longitude":null},{"code":120721,"code_cities":1207,"name":"PATUMBAK","latitude":3.4949604,"longitude":98.7205877},{"code":120722,"code_cities":1207,"name":"DELI TUA","latitude":3.4902175,"longitude":98.6930685},{"code":120723,"code_cities":1207,"name":"SUNGGAL","latitude":3.611391,"longitude":98.5830907},{"code":120724,"code_cities":1207,"name":"HAMPARAN PERAK","latitude":3.7618891,"longitude":98.5940814},{"code":120725,"code_cities":1207,"name":"LABUHAN DELI","latitude":3.6711541,"longitude":98.6270628},{"code":120726,"code_cities":1207,"name":"PERCUT SEI TUAN","latitude":3.6396672,"longitude":98.770147},{"code":120727,"code_cities":1207,"name":"BATANG KUIS","latitude":3.629103,"longitude":98.8252502},{"code":120728,"code_cities":1207,"name":"LUBUK PAKAM","latitude":3.5663315,"longitude":98.8751518},{"code":120731,"code_cities":1207,"name":"PAGAR MERBAU","latitude":3.5281289,"longitude":98.9134965},{"code":120732,"code_cities":1207,"name":"PANTAI LABU","latitude":3.6687724,"longitude":98.8693609},{"code":120733,"code_cities":1207,"name":"BERINGIN","latitude":3.6286693,"longitude":98.8693609},{"code":120801,"code_cities":1208,"name":"SIANTAR","latitude":2.9497365,"longitude":99.1345466},{"code":120802,"code_cities":1208,"name":"GUNUNG MALELA","latitude":3.0282416,"longitude":99.2009815},{"code":120803,"code_cities":1208,"name":"GUNUNG MALIGAS","latitude":3.0484063,"longitude":99.1566855},{"code":120804,"code_cities":1208,"name":"PANEI","latitude":2.8921141,"longitude":98.9355737},{"code":120805,"code_cities":1208,"name":"PANOMBEIAN PANE","latitude":null,"longitude":null},{"code":120806,"code_cities":1208,"name":"JORLANG HATARAN","latitude":2.8519622,"longitude":99.0239444},{"code":120807,"code_cities":1208,"name":"RAYA KAHEAN","latitude":3.1199207,"longitude":98.9024603},{"code":120808,"code_cities":1208,"name":"BOSAR MALIGAS","latitude":3.0760647,"longitude":99.389511},{"code":120809,"code_cities":1208,"name":"SIDAMANIK","latitude":2.8526563,"longitude":98.9355737},{"code":120810,"code_cities":1208,"name":"PEMATANG SIDAMANIK","latitude":2.7743416,"longitude":98.8693609},{"code":120811,"code_cities":1208,"name":"TANAH JAWA","latitude":2.8901607,"longitude":99.1788304},{"code":120812,"code_cities":1208,"name":"HATONDUHAN","latitude":2.7625597,"longitude":99.1234795},{"code":120813,"code_cities":1208,"name":"DOLOK PANRIBUAN","latitude":2.7632405,"longitude":99.0349977},{"code":120814,"code_cities":1208,"name":"PURBA","latitude":2.9233863,"longitude":98.7260927},{"code":120815,"code_cities":1208,"name":"HARANGGAOL HORISON","latitude":2.8719851,"longitude":98.6683097},{"code":120816,"code_cities":1208,"name":"GIRSANG SIPANGAN BOLON","latitude":2.6456467,"longitude":98.9907938},{"code":120817,"code_cities":1208,"name":"DOLOK BATU NANGGAR","latitude":3.127637,"longitude":99.1566855},{"code":120818,"code_cities":1208,"name":"HUTA BAYU RAJA","latitude":null,"longitude":null},{"code":120819,"code_cities":1208,"name":"JAWA MARAJA BAH JAMBI","latitude":2.9687513,"longitude":99.2231387},{"code":120820,"code_cities":1208,"name":"DOLOK PARDAMEAN","latitude":2.8437357,"longitude":98.8142264},{"code":120821,"code_cities":1208,"name":"PEMATANG BANDAR","latitude":3.10704,"longitude":99.245302},{"code":120822,"code_cities":1208,"name":"BANDAR HULUAN","latitude":3.1470728,"longitude":99.2009815},{"code":120823,"code_cities":1208,"name":"BANDAR","latitude":4.703412,"longitude":96.9531225},{"code":120824,"code_cities":1208,"name":"BANDAR MASILAM","latitude":3.2455087,"longitude":99.2896468},{"code":120825,"code_cities":1208,"name":"SILIMAKUTA","latitude":2.9538144,"longitude":98.6270628},{"code":120826,"code_cities":1208,"name":"DOLOK SILAU","latitude":3.0524538,"longitude":98.6710603},{"code":120827,"code_cities":1208,"name":"SILOU KAHEAN","latitude":null,"longitude":null},{"code":120828,"code_cities":1208,"name":"TAPIAN DOLOK","latitude":3.078769,"longitude":99.0792263},{"code":120829,"code_cities":1208,"name":"RAYA","latitude":2.9781612,"longitude":99.2785583},{"code":120830,"code_cities":1208,"name":"UJUNG PADANG","latitude":3.0357191,"longitude":99.4783816},{"code":120831,"code_cities":1208,"name":"PAMATANG SILIMA HUTA","latitude":null,"longitude":null},{"code":120832,"code_cities":1208,"name":"DOLOG MASAGAL","latitude":null,"longitude":null},{"code":120908,"code_cities":1209,"name":"MERANTI","latitude":3.0838599,"longitude":99.6230001},{"code":120909,"code_cities":1209,"name":"AIR JOMAN","latitude":3.0040063,"longitude":99.7121206},{"code":120910,"code_cities":1209,"name":"TANJUNG BALAI","latitude":3.0424911,"longitude":99.8236533},{"code":120911,"code_cities":1209,"name":"SEI KEPAYANG","latitude":2.854921,"longitude":99.8571416},{"code":120912,"code_cities":1209,"name":"SIMPANG EMPAT","latitude":2.8755633,"longitude":99.745565},{"code":120913,"code_cities":1209,"name":"AIR BATU","latitude":2.8667652,"longitude":99.6230001},{"code":120914,"code_cities":1209,"name":"PULAU RAKYAT","latitude":2.7186909,"longitude":99.7009754},{"code":120915,"code_cities":1209,"name":"BANDAR PULAU","latitude":2.6426739,"longitude":99.389511},{"code":120916,"code_cities":1209,"name":"BUNTU PANE","latitude":2.838442,"longitude":99.4783816},{"code":120917,"code_cities":1209,"name":"BANDAR PASIR MANDOGE","latitude":2.7806672,"longitude":99.3229213},{"code":120918,"code_cities":1209,"name":"AEK KUASAN","latitude":2.669569,"longitude":99.7121206},{"code":120919,"code_cities":1209,"name":"KOTA KISARAN BARAT","latitude":null,"longitude":null},{"code":120920,"code_cities":1209,"name":"KOTA KISARAN TIMUR","latitude":null,"longitude":null},{"code":120921,"code_cities":1209,"name":"AEK SONGSONGAN","latitude":2.6044661,"longitude":99.2563859},{"code":120922,"code_cities":1209,"name":"RAHUNIG","latitude":null,"longitude":null},{"code":120923,"code_cities":1209,"name":"SEI DADAP","latitude":2.9256811,"longitude":99.6452714},{"code":120924,"code_cities":1209,"name":"SEI KEPAYANG BARAT","latitude":2.958366,"longitude":99.8515593},{"code":120925,"code_cities":1209,"name":"SEI KEPAYANG TIMUR","latitude":2.9426309,"longitude":99.9576849},{"code":120926,"code_cities":1209,"name":"TINGGI RAJA","latitude":2.8084662,"longitude":99.5339744},{"code":120927,"code_cities":1209,"name":"SETIA JANJI","latitude":2.9467469,"longitude":99.4894972},{"code":120928,"code_cities":1209,"name":"SILAU LAUT","latitude":3.0756546,"longitude":99.7093341},{"code":120929,"code_cities":1209,"name":"RAWANG PANCA ARGA","latitude":3.0636787,"longitude":99.6675486},{"code":120930,"code_cities":1209,"name":"PULO BANDRING","latitude":3.0053916,"longitude":99.5562219},{"code":120931,"code_cities":1209,"name":"TELUK DALAM","latitude":2.6137826,"longitude":96.1420947},{"code":120932,"code_cities":1209,"name":"AEK LEDONG","latitude":2.6111462,"longitude":99.6675486},{"code":121001,"code_cities":1210,"name":"RANTAU UTARA","latitude":2.1232811,"longitude":99.8236533},{"code":121002,"code_cities":1210,"name":"RANTAU SELATAN","latitude":2.0650987,"longitude":99.8459774},{"code":121007,"code_cities":1210,"name":"BILAH BARAT","latitude":2.0560544,"longitude":99.745565},{"code":121008,"code_cities":1210,"name":"BILAH HILIR","latitude":2.3253633,"longitude":100.0583451},{"code":121009,"code_cities":1210,"name":"BILAH HULU","latitude":2.016312,"longitude":99.9241575},{"code":121014,"code_cities":1210,"name":"PANGKATAN","latitude":2.15,"longitude":100.0},{"code":121018,"code_cities":1210,"name":"PANAI TENGAH","latitude":2.3629286,"longitude":100.2375823},{"code":121019,"code_cities":1210,"name":"PANAI HILIR","latitude":2.6362972,"longitude":100.1927389},{"code":121020,"code_cities":1210,"name":"PANAI HULU","latitude":2.4316223,"longitude":100.1591213},{"code":121101,"code_cities":1211,"name":"SIDIKALANG","latitude":2.7439024,"longitude":98.3143192},{"code":121102,"code_cities":1211,"name":"SUMBUL","latitude":2.7674876,"longitude":98.4622987},{"code":121103,"code_cities":1211,"name":"TIGALINGGA","latitude":null,"longitude":null},{"code":121104,"code_cities":1211,"name":"SIEMPAT NEMPU","latitude":2.8384977,"longitude":98.1884949},{"code":121105,"code_cities":1211,"name":"SILIMA PUNGGA PUNGGA","latitude":null,"longitude":null},{"code":121106,"code_cities":1211,"name":"TANAH PINEM","latitude":3.0075788,"longitude":98.068343},{"code":121107,"code_cities":1211,"name":"SIEMPAT NEMPU HULU","latitude":2.8479823,"longitude":98.2431747},{"code":121108,"code_cities":1211,"name":"SIEMPAT NEMPU HILIR","latitude":2.898576,"longitude":98.0792577},{"code":121109,"code_cities":1211,"name":"PEGAGAN HILIR","latitude":2.8470302,"longitude":98.3745717},{"code":121110,"code_cities":1211,"name":"PARBULUAN","latitude":2.6493899,"longitude":98.4622987},{"code":121111,"code_cities":1211,"name":"LAE PARIRA","latitude":2.7792825,"longitude":98.1884949},{"code":121112,"code_cities":1211,"name":"GUNUNG SITEMBER","latitude":2.9376768,"longitude":98.1447804},{"code":121113,"code_cities":1211,"name":"BERAMPU","latitude":2.7393948,"longitude":98.2541155},{"code":121114,"code_cities":1211,"name":"SILAHISABUNGAN","latitude":null,"longitude":null},{"code":121115,"code_cities":1211,"name":"SITINJO","latitude":2.6795676,"longitude":98.3636131},{"code":121201,"code_cities":1212,"name":"BALIGE","latitude":2.3337119,"longitude":99.083252},{"code":121202,"code_cities":1212,"name":"LAGUBOTI","latitude":2.3314866,"longitude":99.1677572},{"code":121203,"code_cities":1212,"name":"SILAEN","latitude":2.4476333,"longitude":99.3007367},{"code":121204,"code_cities":1212,"name":"HABINSARAN","latitude":2.3692818,"longitude":99.3451118},{"code":121205,"code_cities":1212,"name":"PINTU POHAN MERANTI","latitude":2.5254975,"longitude":99.3451118},{"code":121206,"code_cities":1212,"name":"BORBOR","latitude":2.2138864,"longitude":99.3007367},{"code":121207,"code_cities":1212,"name":"PORSEA","latitude":2.4781016,"longitude":99.1345466},{"code":121208,"code_cities":1212,"name":"AJIBATA","latitude":2.5968341,"longitude":98.9576571},{"code":121209,"code_cities":1212,"name":"LUMBAN JULU","latitude":2.566879,"longitude":99.0349977},{"code":121210,"code_cities":1212,"name":"ULUAN","latitude":2.4393178,"longitude":99.0902873},{"code":121219,"code_cities":1212,"name":"SIGUMPAR","latitude":2.3996654,"longitude":99.1788304},{"code":121220,"code_cities":1212,"name":"SIANTAR NARUMONDA","latitude":2.4773277,"longitude":99.245302},{"code":121221,"code_cities":1212,"name":"NASSAU","latitude":2.266667,"longitude":99.416667},{"code":121222,"code_cities":1212,"name":"TAMPAHAN","latitude":2.308097,"longitude":99.0184183},{"code":121223,"code_cities":1212,"name":"BONATUA LUNASI","latitude":2.536793,"longitude":99.1345466},{"code":121224,"code_cities":1212,"name":"PARMAKSIAN","latitude":2.4971902,"longitude":99.2009815},{"code":121301,"code_cities":1213,"name":"PANYABUNGAN","latitude":0.874139,"longitude":99.6118667},{"code":121302,"code_cities":1213,"name":"PANYABUNGAN UTARA","latitude":0.9213946,"longitude":99.5339744},{"code":121303,"code_cities":1213,"name":"PANYABUNGAN TIMUR","latitude":0.7798525,"longitude":99.7678687},{"code":121304,"code_cities":1213,"name":"PANYABUNGAN SELATAN","latitude":0.7522533,"longitude":99.5339744},{"code":121305,"code_cities":1213,"name":"PANYABUNGAN BARAT","latitude":0.8274468,"longitude":99.4894972},{"code":121306,"code_cities":1213,"name":"SIABU","latitude":1.0252756,"longitude":99.4783816},{"code":121307,"code_cities":1213,"name":"BUKIT MALINTANG","latitude":0.9778694,"longitude":99.5562219},{"code":121308,"code_cities":1213,"name":"KOTANOPAN","latitude":0.6488335,"longitude":99.745565},{"code":121309,"code_cities":1213,"name":"LEMBAH SORIK MARAPI","latitude":0.7333598,"longitude":99.6007348},{"code":121310,"code_cities":1213,"name":"TAMBANGAN","latitude":0.695803,"longitude":99.6452714},{"code":121311,"code_cities":1213,"name":"ULU PUNGKUT","latitude":0.555439,"longitude":99.7678687},{"code":121312,"code_cities":1213,"name":"MUARA SIPONGI","latitude":0.6112169,"longitude":99.8794744},{"code":121313,"code_cities":1213,"name":"BATANG NATAL","latitude":0.7056474,"longitude":99.4117197},{"code":121314,"code_cities":1213,"name":"LINGGA BAYU","latitude":0.6123383,"longitude":99.2563859},{"code":121315,"code_cities":1213,"name":"BATAHAN","latitude":0.396003,"longitude":99.141617},{"code":121316,"code_cities":1213,"name":"NATAL","latitude":0.7248949,"longitude":99.1677572},{"code":121317,"code_cities":1213,"name":"MUARA BATANG GADIS","latitude":0.969705,"longitude":99.1013498},{"code":121318,"code_cities":1213,"name":"RANTO BAEK","latitude":0.5373939,"longitude":99.389511},{"code":121319,"code_cities":1213,"name":"HUTA BARGOT","latitude":0.8839754,"longitude":99.4450439},{"code":121320,"code_cities":1213,"name":"PUNCAK SORIK MARAPI","latitude":0.6772199,"longitude":99.5784754},{"code":121321,"code_cities":1213,"name":"PAKANTAN","latitude":0.5272811,"longitude":99.890643},{"code":121322,"code_cities":1213,"name":"SINUNUKAN","latitude":0.4630596,"longitude":99.2120593},{"code":121323,"code_cities":1213,"name":"NAGA JUANG","latitude":0.940476,"longitude":99.4450439},{"code":121401,"code_cities":1214,"name":"LOLOMATUA","latitude":0.9591444,"longitude":97.6385368},{"code":121402,"code_cities":1214,"name":"GOMO","latitude":0.8878405,"longitude":97.7960118},{"code":121403,"code_cities":1214,"name":"LAHUSA","latitude":0.7650603,"longitude":97.8503951},{"code":121404,"code_cities":1214,"name":"HIBALA","latitude":-0.4640027,"longitude":98.4622987},{"code":121405,"code_cities":1214,"name":"PULAU-PULAU BATU","latitude":-0.2239672,"longitude":98.3821052},{"code":121406,"code_cities":1214,"name":"TELUK DALAM","latitude":2.6137826,"longitude":96.1420947},{"code":121407,"code_cities":1214,"name":"AMANDRAYA","latitude":0.680622,"longitude":97.6873706},{"code":121408,"code_cities":1214,"name":"LOLOWAU","latitude":null,"longitude":null},{"code":121409,"code_cities":1214,"name":"SUSUA","latitude":0.7934789,"longitude":97.7742702},{"code":121410,"code_cities":1214,"name":"MANIAMOLO","latitude":0.6429536,"longitude":97.730807},{"code":121411,"code_cities":1214,"name":"HILIMEGAI","latitude":0.8740136,"longitude":97.6276895},{"code":121412,"code_cities":1214,"name":"TOMA","latitude":0.6662146,"longitude":97.8776023},{"code":121413,"code_cities":1214,"name":"MAZINO","latitude":0.6991834,"longitude":97.8395151},{"code":121414,"code_cities":1214,"name":"UMBUNASI","latitude":0.925807,"longitude":97.730807},{"code":121415,"code_cities":1214,"name":"ARAMO","latitude":0.7369787,"longitude":97.7525352},{"code":121416,"code_cities":1214,"name":"PULAU-PULAU BATU TIMUR","latitude":0.1292962,"longitude":98.6380598},{"code":121417,"code_cities":1214,"name":"MAZO","latitude":0.8265072,"longitude":97.7688358},{"code":121418,"code_cities":1214,"name":"FANAYAMA","latitude":0.605328,"longitude":97.7742702},{"code":121419,"code_cities":1214,"name":"ULUNOYO","latitude":0.8786391,"longitude":97.6765157},{"code":121420,"code_cities":1214,"name":"HURUNA","latitude":0.9780419,"longitude":97.6602365},{"code":121421,"code_cities":1214,"name":"O'O'U","latitude":null,"longitude":null},{"code":121422,"code_cities":1214,"name":"ONOHAZUMBA","latitude":0.9829664,"longitude":97.5788975},{"code":121423,"code_cities":1214,"name":"HILISALAWA'AHE","latitude":null,"longitude":null},{"code":121424,"code_cities":1214,"name":"ULUSUSUA","latitude":0.817197,"longitude":97.7036561},{"code":121425,"code_cities":1214,"name":"SIDUA'ORI","latitude":null,"longitude":null},{"code":121426,"code_cities":1214,"name":"SOMAMBAWA","latitude":0.8357059,"longitude":97.8884881},{"code":121427,"code_cities":1214,"name":"BORONADU","latitude":0.8690323,"longitude":97.7525352},{"code":121428,"code_cities":1214,"name":"SIMUK","latitude":-0.0786021,"longitude":97.8667182},{"code":121429,"code_cities":1214,"name":"PULAU-PULAU BATU BARAT","latitude":-0.1085789,"longitude":98.3115816},{"code":121430,"code_cities":1214,"name":"PULAU-PULAU BATU UTARA","latitude":-0.0276875,"longitude":98.385532},{"code":121431,"code_cities":1214,"name":"TANAH MASA","latitude":-0.2498447,"longitude":98.4952228},{"code":121432,"code_cities":1214,"name":"LUAHAGUNDRE MANIAMOLO","latitude":0.5840218,"longitude":97.7224885},{"code":121433,"code_cities":1214,"name":"ONOLALU","latitude":0.6264516,"longitude":97.8295646},{"code":121434,"code_cities":1214,"name":"ULU IDANOTAE","latitude":null,"longitude":null},{"code":121435,"code_cities":1214,"name":"IDANOTAE","latitude":0.8855179,"longitude":97.7769875},{"code":121501,"code_cities":1215,"name":"SITELU TALI URANG JEHE","latitude":null,"longitude":null},{"code":121502,"code_cities":1215,"name":"KERAJAAN","latitude":2.6406763,"longitude":98.2978951},{"code":121503,"code_cities":1215,"name":"SALAK","latitude":2.4543341,"longitude":98.2869478},{"code":121504,"code_cities":1215,"name":"SITELU TALI URANG JULU","latitude":null,"longitude":null},{"code":121505,"code_cities":1215,"name":"PERGETTENG GETTENG SENGKUT","latitude":null,"longitude":null},{"code":121506,"code_cities":1215,"name":"PAGINDAR","latitude":2.4551455,"longitude":98.1557066},{"code":121507,"code_cities":1215,"name":"TINADA","latitude":2.5962771,"longitude":98.3252705},{"code":121508,"code_cities":1215,"name":"SIEMPAT RUBE","latitude":2.571407,"longitude":98.3745717},{"code":121601,"code_cities":1216,"name":"PARLILITAN","latitude":2.394682,"longitude":98.4403573},{"code":121602,"code_cities":1216,"name":"POLLUNG","latitude":2.3736302,"longitude":98.6820636},{"code":121603,"code_cities":1216,"name":"BAKTIRAJA","latitude":null,"longitude":null},{"code":121604,"code_cities":1216,"name":"PARANGINAN","latitude":2.3037519,"longitude":98.9355737},{"code":121605,"code_cities":1216,"name":"LINTONG NIHUTA","latitude":2.2555384,"longitude":98.8583309},{"code":121606,"code_cities":1216,"name":"DOLOK SANGGUL","latitude":2.2465397,"longitude":98.7371039},{"code":121607,"code_cities":1216,"name":"SIJAMAPOLANG","latitude":null,"longitude":null},{"code":121608,"code_cities":1216,"name":"ONAN GANJANG","latitude":2.1401409,"longitude":98.6380598},{"code":121609,"code_cities":1216,"name":"PAKKAT","latitude":2.160693,"longitude":98.4403573},{"code":121610,"code_cities":1216,"name":"TARABINTANG","latitude":null,"longitude":null},{"code":121701,"code_cities":1217,"name":"SIMANINDO","latitude":2.6764708,"longitude":98.8032042},{"code":121702,"code_cities":1217,"name":"ONAN RUNGGU","latitude":2.4990348,"longitude":98.9355737},{"code":121703,"code_cities":1217,"name":"NAINGGOLAN","latitude":2.434349,"longitude":98.883751},{"code":121704,"code_cities":1217,"name":"PALIPI","latitude":2.529235,"longitude":98.8142264},{"code":121705,"code_cities":1217,"name":"HARIAN","latitude":2.5307213,"longitude":98.5940814},{"code":121706,"code_cities":1217,"name":"SIANJAR MULA MULA","latitude":null,"longitude":null},{"code":121707,"code_cities":1217,"name":"RONGGUR NIHUTA","latitude":2.6175501,"longitude":98.8032042},{"code":121708,"code_cities":1217,"name":"PANGURURAN","latitude":2.6223648,"longitude":98.7170036},{"code":121709,"code_cities":1217,"name":"SITIO-TIO","latitude":2.4808026,"longitude":98.7371039},{"code":121801,"code_cities":1218,"name":"PANTAI CERMIN","latitude":3.6275746,"longitude":98.9797467},{"code":121802,"code_cities":1218,"name":"PERBAUNGAN","latitude":3.5674986,"longitude":98.9797467},{"code":121803,"code_cities":1218,"name":"TELUK MENGKUDU","latitude":3.5461852,"longitude":99.1124139},{"code":121804,"code_cities":1218,"name":"SEI RAMPAH","latitude":3.4765641,"longitude":99.0792263},{"code":121805,"code_cities":1218,"name":"TANJUNG BERINGIN","latitude":3.4851438,"longitude":99.2231387},{"code":121806,"code_cities":1218,"name":"BANDAR KHALIPAH","latitude":3.424848,"longitude":99.2674713},{"code":121807,"code_cities":1218,"name":"DOLOK MERAWAN","latitude":3.1973692,"longitude":99.1234795},{"code":121808,"code_cities":1218,"name":"SIPISPIS","latitude":3.1684735,"longitude":99.0239444},{"code":121809,"code_cities":1218,"name":"DOLOK MASIHUL","latitude":3.3174612,"longitude":99.0349977},{"code":121810,"code_cities":1218,"name":"KOTARIH","latitude":3.2693962,"longitude":98.8473024},{"code":121811,"code_cities":1218,"name":"SILINDA","latitude":3.2697861,"longitude":98.8032042},{"code":121812,"code_cities":1218,"name":"SERBA JADI","latitude":4.4415515,"longitude":97.5247243},{"code":121813,"code_cities":1218,"name":"TEBING TINGGI","latitude":0.97656,"longitude":102.7364962},{"code":121814,"code_cities":1218,"name":"PEGAJAHAN","latitude":3.4875105,"longitude":98.9797467},{"code":121815,"code_cities":1218,"name":"SEI BAMBAN","latitude":3.4357871,"longitude":99.1677572},{"code":121816,"code_cities":1218,"name":"TEBING SYAHBANDAR","latitude":3.2760376,"longitude":99.2120593},{"code":121817,"code_cities":1218,"name":"BINTANG BAYU","latitude":3.2885077,"longitude":98.9355737},{"code":121901,"code_cities":1219,"name":"MEDANG DERAS","latitude":3.3841258,"longitude":99.3562094},{"code":121902,"code_cities":1219,"name":"SEI SUKA","latitude":3.3246163,"longitude":99.3340158},{"code":121903,"code_cities":1219,"name":"AIR PUTIH","latitude":3.2842122,"longitude":99.4006146},{"code":121904,"code_cities":1219,"name":"LIMA PULUH","latitude":null,"longitude":null},{"code":121905,"code_cities":1219,"name":"TALAWI","latitude":3.1638781,"longitude":99.5339744},{"code":121906,"code_cities":1219,"name":"TANJUNG TIRAM","latitude":3.1528327,"longitude":99.6564092},{"code":121907,"code_cities":1219,"name":"SEI BALAI","latitude":3.1238485,"longitude":99.5784754},{"code":121908,"code_cities":1219,"name":"LAUT TADOR","latitude":null,"longitude":null},{"code":121909,"code_cities":1219,"name":"LIMA PULUH PESISIR","latitude":null,"longitude":null},{"code":121910,"code_cities":1219,"name":"DATUK LIMA PULUH","latitude":null,"longitude":null},{"code":121911,"code_cities":1219,"name":"DATUK TANAH DATAR","latitude":null,"longitude":null},{"code":121912,"code_cities":1219,"name":"NIBUNG HANGUS","latitude":null,"longitude":null},{"code":122001,"code_cities":1220,"name":"DOLOK SIGOMPULON","latitude":1.9793075,"longitude":99.6564092},{"code":122002,"code_cities":1220,"name":"DOLOK","latitude":1.8251299,"longitude":99.6564092},{"code":122003,"code_cities":1220,"name":"HALONGONAN","latitude":1.6134933,"longitude":99.7678687},{"code":122004,"code_cities":1220,"name":"PADANG BOLAK","latitude":1.5378286,"longitude":99.5896043},{"code":122005,"code_cities":1220,"name":"PADANG BOLAK JULU","latitude":1.4810114,"longitude":99.4783816},{"code":122006,"code_cities":1220,"name":"PORTIBI","latitude":1.4039726,"longitude":99.6564092},{"code":122007,"code_cities":1220,"name":"BATANG ONANG","latitude":1.3285428,"longitude":99.4783816},{"code":122008,"code_cities":1220,"name":"SIMANGAMBAT","latitude":1.5353324,"longitude":100.1255164},{"code":122009,"code_cities":1220,"name":"HULU SIHAPAS","latitude":1.4335366,"longitude":99.4228263},{"code":122010,"code_cities":1220,"name":"PADANG BOLAK TENGGARA","latitude":null,"longitude":null},{"code":122011,"code_cities":1220,"name":"HALONGONAN TIMUR","latitude":null,"longitude":null},{"code":122012,"code_cities":1220,"name":"UJUNG BATU","latitude":0.6845114,"longitude":100.5521142},{"code":122101,"code_cities":1221,"name":"SOSOPAN","latitude":1.2331301,"longitude":99.5896043},{"code":122102,"code_cities":1221,"name":"BARUMUN TENGAH","latitude":1.3655295,"longitude":99.745565},{"code":122103,"code_cities":1221,"name":"HURISTAK","latitude":1.3647921,"longitude":99.9241575},{"code":122104,"code_cities":1221,"name":"LUBUK BARUMUN","latitude":1.1376879,"longitude":99.7901781},{"code":122105,"code_cities":1221,"name":"HUTA RAJA TINGGI","latitude":1.155745,"longitude":100.0359661},{"code":122106,"code_cities":1221,"name":"ULU BARUMUN","latitude":1.0626455,"longitude":99.6118667},{"code":122107,"code_cities":1221,"name":"BARUMUN","latitude":0.996338,"longitude":99.6898316},{"code":122108,"code_cities":1221,"name":"SOSA","latitude":1.0052632,"longitude":99.8571416},{"code":122109,"code_cities":1221,"name":"BATANG LUBU SUTAM","latitude":0.9105395,"longitude":100.0583451},{"code":122110,"code_cities":1221,"name":"BARUMUN SELATAN","latitude":0.958509,"longitude":99.7344154},{"code":122111,"code_cities":1221,"name":"AEK NABARA BARUMUN","latitude":1.2515284,"longitude":99.745565},{"code":122112,"code_cities":1221,"name":"SIHAPAS BARUMUN","latitude":1.2992934,"longitude":99.6675486},{"code":122201,"code_cities":1222,"name":"KOTAPINANG","latitude":null,"longitude":null},{"code":122202,"code_cities":1222,"name":"KAMPUNG RAKYAT","latitude":2.0724054,"longitude":100.2151578},{"code":122203,"code_cities":1222,"name":"TORGAMBA","latitude":1.6877896,"longitude":100.2151578},{"code":122204,"code_cities":1222,"name":"SUNGAI KANAN","latitude":1.7470756,"longitude":99.8794744},{"code":122205,"code_cities":1222,"name":"SILANGKITANG","latitude":1.8427607,"longitude":99.9465077},{"code":122301,"code_cities":1223,"name":"KUALUH HULU","latitude":2.561968,"longitude":99.7009754},{"code":122302,"code_cities":1223,"name":"KUALUH LEIDONG","latitude":2.7168627,"longitude":99.9241575},{"code":122303,"code_cities":1223,"name":"KUALUH HILIR","latitude":2.5405319,"longitude":99.9465077},{"code":122304,"code_cities":1223,"name":"AEK KUO","latitude":2.3658668,"longitude":99.8348146},{"code":122305,"code_cities":1223,"name":"MARBAU","latitude":2.2296655,"longitude":99.8571416},{"code":122306,"code_cities":1223,"name":"NA IX - X","latitude":null,"longitude":null},{"code":122307,"code_cities":1223,"name":"AEK NATAS","latitude":2.3285034,"longitude":99.6118667},{"code":122308,"code_cities":1223,"name":"KUALUH SELATAN","latitude":2.465101,"longitude":99.5896043},{"code":122401,"code_cities":1224,"name":"LOTU","latitude":1.4219883,"longitude":97.3624598},{"code":122402,"code_cities":1224,"name":"SAWO","latitude":1.4938357,"longitude":97.3894772},{"code":122403,"code_cities":1224,"name":"TUHEMBERUA","latitude":1.4408061,"longitude":97.4705935},{"code":122404,"code_cities":1224,"name":"SITOLU ORI","latitude":1.4025503,"longitude":97.4489531},{"code":122405,"code_cities":1224,"name":"NAMOHALU ESIWA","latitude":1.3356604,"longitude":97.4165053},{"code":122406,"code_cities":1224,"name":"ALASA TALUMUZOI","latitude":null,"longitude":null},{"code":122407,"code_cities":1224,"name":"ALASA","latitude":1.1830502,"longitude":97.3732655},{"code":122408,"code_cities":1224,"name":"TUGALA OYO","latitude":1.1162655,"longitude":97.4273195},{"code":122409,"code_cities":1224,"name":"AFULU","latitude":1.2595949,"longitude":97.286868},{"code":122410,"code_cities":1224,"name":"LAHEWA","latitude":1.390561,"longitude":97.176434},{"code":122411,"code_cities":1224,"name":"LAHEWA TIMUR","latitude":1.3455196,"longitude":97.3192542},{"code":122501,"code_cities":1225,"name":"LAHOMI","latitude":0.9831141,"longitude":97.5138947},{"code":122502,"code_cities":1225,"name":"SIROMBU","latitude":0.9643028,"longitude":97.4489531},{"code":122503,"code_cities":1225,"name":"MANDREHE BARAT","latitude":1.1160444,"longitude":97.5138947},{"code":122504,"code_cities":1225,"name":"MORO'O","latitude":null,"longitude":null},{"code":122505,"code_cities":1225,"name":"MANDREHE","latitude":1.0212525,"longitude":97.4273195},{"code":122506,"code_cities":1225,"name":"MANDREHE UTARA","latitude":1.1160444,"longitude":97.5138947},{"code":122507,"code_cities":1225,"name":"LOLOFITU MOI","latitude":1.0968079,"longitude":97.6005786},{"code":122508,"code_cities":1225,"name":"ULU MORO'O","latitude":null,"longitude":null},{"code":127101,"code_cities":1271,"name":"MEDAN KOTA","latitude":3.5627311,"longitude":98.69582},{"code":127102,"code_cities":1271,"name":"MEDAN SUNGGAL","latitude":3.5759525,"longitude":98.6215649},{"code":127103,"code_cities":1271,"name":"MEDAN HELVETIA","latitude":3.6096804,"longitude":98.6311865},{"code":127104,"code_cities":1271,"name":"MEDAN DENAI","latitude":3.5750125,"longitude":98.7205877},{"code":127105,"code_cities":1271,"name":"MEDAN BARAT","latitude":3.6080728,"longitude":98.6683097},{"code":127106,"code_cities":1271,"name":"MEDAN DELI","latitude":3.6556227,"longitude":98.6765618},{"code":127107,"code_cities":1271,"name":"MEDAN TUNTUNGAN","latitude":3.5258916,"longitude":98.6215649},{"code":127108,"code_cities":1271,"name":"MEDAN BELAWAN","latitude":3.7662059,"longitude":98.6655592},{"code":127109,"code_cities":1271,"name":"MEDAN AMPLAS","latitude":3.5450819,"longitude":98.7095789},{"code":127110,"code_cities":1271,"name":"MEDAN AREA","latitude":3.5777001,"longitude":98.7013233},{"code":127111,"code_cities":1271,"name":"MEDAN JOHOR","latitude":3.5354881,"longitude":98.6655592},{"code":127112,"code_cities":1271,"name":"MEDAN MARELAN","latitude":3.7160675,"longitude":98.6545583},{"code":127113,"code_cities":1271,"name":"MEDAN LABUHAN","latitude":3.7307552,"longitude":98.6930685},{"code":127114,"code_cities":1271,"name":"MEDAN TEMBUNG","latitude":3.6077561,"longitude":98.7013233},{"code":127115,"code_cities":1271,"name":"MEDAN MAIMUN","latitude":3.5741145,"longitude":98.6834392},{"code":127116,"code_cities":1271,"name":"MEDAN POLONIA","latitude":3.5642564,"longitude":98.6669345},{"code":127117,"code_cities":1271,"name":"MEDAN BARU","latitude":3.5681028,"longitude":98.6573084},{"code":127118,"code_cities":1271,"name":"MEDAN PERJUANGAN","latitude":3.6078618,"longitude":98.6903172},{"code":127119,"code_cities":1271,"name":"MEDAN PETISAH","latitude":3.5956772,"longitude":98.6545583},{"code":127120,"code_cities":1271,"name":"MEDAN TIMUR","latitude":3.6254299,"longitude":98.6875659},{"code":127121,"code_cities":1271,"name":"MEDAN SELAYANG","latitude":3.5558188,"longitude":98.6325611},{"code":127201,"code_cities":1272,"name":"SIANTAR TIMUR","latitude":2.962563,"longitude":99.0764613},{"code":127202,"code_cities":1272,"name":"SIANTAR BARAT","latitude":2.9528658,"longitude":99.0543447},{"code":127203,"code_cities":1272,"name":"SIANTAR UTARA","latitude":2.9725353,"longitude":99.0654022},{"code":127204,"code_cities":1272,"name":"SIANTAR SELATAN","latitude":2.9466357,"longitude":99.0612554},{"code":127205,"code_cities":1272,"name":"SIANTAR MARIHAT","latitude":2.9427623,"longitude":99.0819914},{"code":127206,"code_cities":1272,"name":"SIANTAR MARTOBA","latitude":2.9947062,"longitude":99.0736964},{"code":127207,"code_cities":1272,"name":"SIANTAR SITALASARI","latitude":2.9752113,"longitude":99.0405249},{"code":127208,"code_cities":1272,"name":"SIANTAR MARIMBUN","latitude":2.9257308,"longitude":99.0515805},{"code":127301,"code_cities":1273,"name":"SIBOLGA UTARA","latitude":1.7501641,"longitude":98.7839191},{"code":127302,"code_cities":1273,"name":"SIBOLGA KOTA","latitude":1.736951,"longitude":98.7797872},{"code":127303,"code_cities":1273,"name":"SIBOLGA SELATAN","latitude":1.7308411,"longitude":98.8004489},{"code":127304,"code_cities":1273,"name":"SIBOLGA SAMBAS","latitude":1.7321144,"longitude":98.7852965},{"code":127401,"code_cities":1274,"name":"TANJUNG BALAI SELATAN","latitude":2.9613042,"longitude":99.7985457},{"code":127402,"code_cities":1274,"name":"TANJUNG BALAI UTARA","latitude":2.9698953,"longitude":99.8027298},{"code":127403,"code_cities":1274,"name":"SEI TUALANG RASO","latitude":2.9885529,"longitude":99.7846002},{"code":127404,"code_cities":1274,"name":"TELUK NIBUNG","latitude":3.0080878,"longitude":99.8069141},{"code":127405,"code_cities":1274,"name":"DATUK BANDAR","latitude":2.9442247,"longitude":99.7790227},{"code":127406,"code_cities":1274,"name":"DATUK BANDAR TIMUR","latitude":2.9438292,"longitude":99.8236533},{"code":127501,"code_cities":1275,"name":"BINJAI UTARA","latitude":3.6472775,"longitude":98.5007116},{"code":127502,"code_cities":1275,"name":"BINJAI KOTA","latitude":3.5949058,"longitude":98.4705284},{"code":127503,"code_cities":1275,"name":"BINJAI BARAT","latitude":3.6075664,"longitude":98.4568128},{"code":127504,"code_cities":1275,"name":"BINJAI TIMUR","latitude":3.591964,"longitude":98.5171802},{"code":127505,"code_cities":1275,"name":"BINJAI SELATAN","latitude":3.5723299,"longitude":98.4732718},{"code":127601,"code_cities":1276,"name":"PADANG HULU","latitude":3.2991552,"longitude":99.1317797},{"code":127602,"code_cities":1276,"name":"RAMBUTAN","latitude":3.3436308,"longitude":99.1649891},{"code":127603,"code_cities":1276,"name":"PADANG HILIR","latitude":3.328595,"longitude":99.176062},{"code":127604,"code_cities":1276,"name":"BAJENIS","latitude":3.3314198,"longitude":99.1400807},{"code":127605,"code_cities":1276,"name":"TEBING TINGGI KOTA","latitude":3.3262879,"longitude":99.1566855},{"code":127701,"code_cities":1277,"name":"PADANGSIDIMPUAN UTARA","latitude":1.391283,"longitude":99.2619284},{"code":127702,"code_cities":1277,"name":"PADANGSIDIMPUAN SELATAN","latitude":1.3721367,"longitude":99.2841023},{"code":127703,"code_cities":1277,"name":"PADANGSIDIMPUAN BATUNADUA","latitude":1.4102175,"longitude":99.2951916},{"code":127704,"code_cities":1277,"name":"PADANGSIDIMPUAN HUTAIMBARU","latitude":1.4295182,"longitude":99.2397606},{"code":127705,"code_cities":1277,"name":"PADANGSIDIMPUAN TENGGARA","latitude":1.3721801,"longitude":99.2730146},{"code":127706,"code_cities":1277,"name":"PADANGSIDIMPUAN ANGKOLA JULU","latitude":1.4532637,"longitude":99.2674713},{"code":127801,"code_cities":1278,"name":"GUNUNGSITOLI","latitude":null,"longitude":null},{"code":127802,"code_cities":1278,"name":"GUNUNGSITOLI SELATAN","latitude":1.2109538,"longitude":97.6222665},{"code":127803,"code_cities":1278,"name":"GUNUNGSITOLI UTARA","latitude":1.3640551,"longitude":97.5138947},{"code":127804,"code_cities":1278,"name":"GUNUNGSITOLI IDANOI","latitude":1.1537551,"longitude":97.6439611},{"code":127805,"code_cities":1278,"name":"GUNUNGSITOLI ALO'OA","latitude":null,"longitude":null},{"code":127806,"code_cities":1278,"name":"GUNUNGSITOLI BARAT","latitude":1.2253595,"longitude":97.5843171},{"code":130101,"code_cities":1301,"name":"PANCUNG SOAL","latitude":-2.0475001,"longitude":101.048549},{"code":130102,"code_cities":1301,"name":"RANAH PESISIR","latitude":-1.6838348,"longitude":100.9354944},{"code":130103,"code_cities":1301,"name":"LENGAYANG","latitude":-1.5317693,"longitude":100.8451467},{"code":130104,"code_cities":1301,"name":"BATANG KAPAS","latitude":-1.4426495,"longitude":100.6010374},{"code":130105,"code_cities":1301,"name":"IV JURAI","latitude":-1.2480127,"longitude":100.6421799},{"code":130106,"code_cities":1301,"name":"BAYANG","latitude":-1.2579817,"longitude":100.5183622},{"code":130107,"code_cities":1301,"name":"KOTO XI TARUSAN","latitude":-1.1541084,"longitude":100.4846227},{"code":130108,"code_cities":1301,"name":"SUTERA","latitude":-1.4372275,"longitude":100.7323332},{"code":130109,"code_cities":1301,"name":"LINGGO SARI BAGANTI","latitude":-1.8173312,"longitude":101.0033112},{"code":130110,"code_cities":1301,"name":"LUNANG","latitude":-2.2199295,"longitude":101.207047},{"code":130111,"code_cities":1301,"name":"BASA AMPEK BALAI TAPAN","latitude":-2.1440454,"longitude":101.0259275},{"code":130112,"code_cities":1301,"name":"IV NAGARI BAYANG UTARA","latitude":null,"longitude":null},{"code":130113,"code_cities":1301,"name":"AIRPURA","latitude":-1.9321231,"longitude":101.048549},{"code":130114,"code_cities":1301,"name":"RANAH AMPEK HULU TAPAN","latitude":-2.1386018,"longitude":101.1107854},{"code":130115,"code_cities":1301,"name":"SILAUT","latitude":-2.3762355,"longitude":101.0259275},{"code":130203,"code_cities":1302,"name":"PANTAI CERMIN","latitude":3.6275746,"longitude":98.9797467},{"code":130204,"code_cities":1302,"name":"LEMBAH GUMANTI","latitude":-1.1341375,"longitude":100.7774424},{"code":130205,"code_cities":1302,"name":"PAYUNG SEKAKI","latitude":-0.8802184,"longitude":100.8112885},{"code":130206,"code_cities":1302,"name":"LEMBANG JAYA","latitude":-0.9743214,"longitude":100.7210593},{"code":130207,"code_cities":1302,"name":"GUNUNG TALANG","latitude":-0.9463923,"longitude":100.6421799},{"code":130208,"code_cities":1302,"name":"BUKIT SUNDI","latitude":-0.880482,"longitude":100.7210593},{"code":130209,"code_cities":1302,"name":"IX KOTO SUNGAI LASI","latitude":-0.7960649,"longitude":100.7774424},{"code":130210,"code_cities":1302,"name":"KUBUNG","latitude":-0.8339837,"longitude":100.5971361},{"code":130211,"code_cities":1302,"name":"X KOTO SINGKARAK","latitude":-0.684411,"longitude":100.5971361},{"code":130212,"code_cities":1302,"name":"X KOTO DIATAS","latitude":-0.6097459,"longitude":100.6421799},{"code":130213,"code_cities":1302,"name":"JUNJUNG SIRIH","latitude":-0.6753035,"longitude":100.4958678},{"code":130217,"code_cities":1302,"name":"HILIRAN GUMANTI","latitude":-1.1711665,"longitude":100.9580947},{"code":130218,"code_cities":1302,"name":"TIGO LURAH","latitude":-1.0766962,"longitude":101.0259275},{"code":130219,"code_cities":1302,"name":"DANAU KEMBAR","latitude":-1.021285,"longitude":100.7323332},{"code":130303,"code_cities":1303,"name":"TANJUNG GADANG","latitude":-0.8324707,"longitude":101.1390878},{"code":130304,"code_cities":1303,"name":"SIJUNJUNG","latitude":-0.6275689,"longitude":101.0259275},{"code":130305,"code_cities":1303,"name":"IV NAGARI","latitude":-0.7304103,"longitude":100.8790171},{"code":130306,"code_cities":1303,"name":"KAMANG BARU","latitude":-0.7759907,"longitude":101.2977322},{"code":130307,"code_cities":1303,"name":"LUBUAK TAROK","latitude":null,"longitude":null},{"code":130308,"code_cities":1303,"name":"KOTO VII","latitude":null,"longitude":null},{"code":130309,"code_cities":1303,"name":"SUMPUR KUDUS","latitude":-0.4050276,"longitude":100.9354944},{"code":130310,"code_cities":1303,"name":"KUPITAN","latitude":-0.7118563,"longitude":100.8338593},{"code":130401,"code_cities":1304,"name":"X KOTO","latitude":null,"longitude":null},{"code":130402,"code_cities":1304,"name":"BATIPUH","latitude":-0.498456,"longitude":100.4621366},{"code":130403,"code_cities":1304,"name":"RAMBATAN","latitude":-0.5261654,"longitude":100.5633676},{"code":130404,"code_cities":1304,"name":"LIMA KAUM","latitude":-0.4565124,"longitude":100.5689948},{"code":130405,"code_cities":1304,"name":"TANJUNG EMAS","latitude":-0.4610412,"longitude":100.6421799},{"code":130406,"code_cities":1304,"name":"LINTAU BUO","latitude":-0.4886437,"longitude":100.7887231},{"code":130407,"code_cities":1304,"name":"SUNGAYANG","latitude":-0.3776854,"longitude":100.608395},{"code":130408,"code_cities":1304,"name":"SUNGAI TARAB","latitude":-0.3962919,"longitude":100.5408622},{"code":130409,"code_cities":1304,"name":"PARIANGAN","latitude":-0.4519812,"longitude":100.4958678},{"code":130410,"code_cities":1304,"name":"SALIMPAUANG","latitude":null,"longitude":null},{"code":130411,"code_cities":1304,"name":"PADANG GANTING","latitude":-0.5258541,"longitude":100.7436084},{"code":130412,"code_cities":1304,"name":"TANJUANG BARU","latitude":null,"longitude":null},{"code":130413,"code_cities":1304,"name":"LINTAU BUO UTARA","latitude":-0.3867863,"longitude":100.7323332},{"code":130414,"code_cities":1304,"name":"BATIPUAH SELATAN","latitude":null,"longitude":null},{"code":130501,"code_cities":1305,"name":"LUBUK ALUNG","latitude":-0.6850063,"longitude":100.3273368},{"code":130502,"code_cities":1305,"name":"BATANG ANAI","latitude":-0.7597873,"longitude":100.3273368},{"code":130503,"code_cities":1305,"name":"NAN SABARIS","latitude":-0.657256,"longitude":100.2039477},{"code":130504,"code_cities":1305,"name":"2 X 11 ENAM LINGKUANG","latitude":null,"longitude":null},{"code":130505,"code_cities":1305,"name":"VII KOTO SUNGAI SARIK","latitude":null,"longitude":null},{"code":130506,"code_cities":1305,"name":"V KOTO KAMPUNG DALAM","latitude":null,"longitude":null},{"code":130507,"code_cities":1305,"name":"SUNGAI GARINGGING","latitude":null,"longitude":null},{"code":130508,"code_cities":1305,"name":"SUNGAI LIMAU","latitude":-0.5083782,"longitude":100.0695367},{"code":130509,"code_cities":1305,"name":"IV KOTO AUR MALINTANG","latitude":-0.378334,"longitude":100.0695367},{"code":130510,"code_cities":1305,"name":"ULAKAN TAPAKIH","latitude":null,"longitude":null},{"code":130511,"code_cities":1305,"name":"SINTUAK TOBOH GADANG","latitude":null,"longitude":null},{"code":130512,"code_cities":1305,"name":"PADANG SAGO","latitude":-0.5267705,"longitude":100.2039477},{"code":130513,"code_cities":1305,"name":"BATANG GASAN","latitude":-0.4340741,"longitude":100.0247788},{"code":130514,"code_cities":1305,"name":"V KOTO TIMUR","latitude":-0.4709476,"longitude":100.2263694},{"code":130515,"code_cities":1305,"name":"2 X 11 KAYU TANAM","latitude":-0.5358675,"longitude":100.3273368},{"code":130516,"code_cities":1305,"name":"PATAMUAN","latitude":-0.5080573,"longitude":100.2712297},{"code":130517,"code_cities":1305,"name":"ENAM LINGKUNG","latitude":-0.6384533,"longitude":100.2712297},{"code":130601,"code_cities":1306,"name":"TANJUNG MUTIARA","latitude":-0.2396563,"longitude":99.8348146},{"code":130602,"code_cities":1306,"name":"LUBUK BASUNG","latitude":-0.331966,"longitude":100.0604188},{"code":130603,"code_cities":1306,"name":"TANJUNG RAYA","latitude":-0.3133546,"longitude":100.1927389},{"code":130604,"code_cities":1306,"name":"MATUR","latitude":-0.2762774,"longitude":100.2824483},{"code":130605,"code_cities":1306,"name":"IV KOTO","latitude":-0.3409944,"longitude":100.3161126},{"code":130606,"code_cities":1306,"name":"BANUHAMPU","latitude":-0.3409212,"longitude":100.383479},{"code":130607,"code_cities":1306,"name":"AMPEK ANGKEK","latitude":-0.2853883,"longitude":100.4284178},{"code":130608,"code_cities":1306,"name":"BASO","latitude":-0.2668535,"longitude":100.4958678},{"code":130609,"code_cities":1306,"name":"TILATANG KAMANG","latitude":-0.2484794,"longitude":100.383479},{"code":130610,"code_cities":1306,"name":"PALUPUH","latitude":-0.1286793,"longitude":100.2824483},{"code":130611,"code_cities":1306,"name":"PELEMBAYAN","latitude":null,"longitude":null},{"code":130612,"code_cities":1306,"name":"SUNGAI PUA","latitude":-0.3733082,"longitude":100.4003284},{"code":130613,"code_cities":1306,"name":"AMPEK NAGARI","latitude":-0.1933788,"longitude":99.9576849},{"code":130614,"code_cities":1306,"name":"CANDUNG","latitude":null,"longitude":null},{"code":130615,"code_cities":1306,"name":"KAMANG MAGEK","latitude":-0.2023201,"longitude":100.417181},{"code":130616,"code_cities":1306,"name":"MALALAK","latitude":-0.4151828,"longitude":100.2712297},{"code":130701,"code_cities":1307,"name":"SULIKI","latitude":-0.116343,"longitude":100.433197},{"code":130702,"code_cities":1307,"name":"GUGUAK","latitude":-0.1377833,"longitude":100.5183622},{"code":130703,"code_cities":1307,"name":"PAYAKUMBUH","latitude":-0.1377429,"longitude":100.608395},{"code":130704,"code_cities":1307,"name":"LUAK","latitude":-0.2666968,"longitude":100.6759772},{"code":130705,"code_cities":1307,"name":"HARAU","latitude":-0.1285112,"longitude":100.6872457},{"code":130706,"code_cities":1307,"name":"PANGKALAN KOTO BARU","latitude":0.1101338,"longitude":100.6647101},{"code":130707,"code_cities":1307,"name":"KAPUR IX","latitude":0.2576298,"longitude":100.4846227},{"code":130708,"code_cities":1307,"name":"GUNUANG OMEH","latitude":-0.0550789,"longitude":100.3722477},{"code":130709,"code_cities":1307,"name":"LAREH SAGO HALABAN","latitude":-0.3127634,"longitude":100.7774424},{"code":130710,"code_cities":1307,"name":"SITUJUAH LIMO NAGARI","latitude":-0.3036745,"longitude":100.6309169},{"code":130711,"code_cities":1307,"name":"MUNGKA","latitude":-0.0550389,"longitude":100.5971361},{"code":130712,"code_cities":1307,"name":"BUKIK BARISAN","latitude":0.0183454,"longitude":100.4621366},{"code":130713,"code_cities":1307,"name":"AKABILURU","latitude":-0.2299179,"longitude":100.5183622},{"code":130804,"code_cities":1308,"name":"BONJOL","latitude":0.0183585,"longitude":100.2375823},{"code":130805,"code_cities":1308,"name":"LUBUK SIKAPING","latitude":0.126017,"longitude":100.170502},{"code":130807,"code_cities":1308,"name":"PANTI","latitude":0.3504874,"longitude":100.1031202},{"code":130808,"code_cities":1308,"name":"MAPAT TUNGGUL","latitude":0.6853938,"longitude":100.1479182},{"code":130812,"code_cities":1308,"name":"DUO KOTO","latitude":null,"longitude":null},{"code":130813,"code_cities":1308,"name":"TIGO NAGARI","latitude":0.0183688,"longitude":100.0583451},{"code":130814,"code_cities":1308,"name":"RAO","latitude":0.5363941,"longitude":100.0135929},{"code":130815,"code_cities":1308,"name":"MAPAT TUNGGUL SELATAN","latitude":0.3133104,"longitude":100.2375823},{"code":130816,"code_cities":1308,"name":"SIMPANG ALAHAN MATI","latitude":-0.0091804,"longitude":100.1591213},{"code":130817,"code_cities":1308,"name":"PADANG GELUGUR","latitude":0.4526231,"longitude":100.0471549},{"code":130818,"code_cities":1308,"name":"RAO UTARA","latitude":0.7794302,"longitude":99.9465077},{"code":130819,"code_cities":1308,"name":"RAO SELATAN","latitude":0.5269915,"longitude":100.0695367},{"code":130901,"code_cities":1309,"name":"PAGAI UTARA","latitude":-2.6765553,"longitude":100.0583451},{"code":130902,"code_cities":1309,"name":"SIPORA SELATAN","latitude":-2.2501304,"longitude":99.7009754},{"code":130903,"code_cities":1309,"name":"SIBERUT SELATAN","latitude":-1.6164132,"longitude":99.1456153},{"code":130904,"code_cities":1309,"name":"SIBERUT UTARA","latitude":-1.0837939,"longitude":98.8803925},{"code":130905,"code_cities":1309,"name":"SIBERUT BARAT","latitude":-1.2362017,"longitude":98.704075},{"code":130906,"code_cities":1309,"name":"SIBERUT BARAT DAYA","latitude":null,"longitude":null},{"code":130907,"code_cities":1309,"name":"SIBERUT TENGAH","latitude":-1.368332,"longitude":99.0349977},{"code":130908,"code_cities":1309,"name":"SIPORA UTARA","latitude":-2.1248335,"longitude":99.5784754},{"code":130909,"code_cities":1309,"name":"SIKAKAP","latitude":-2.7541991,"longitude":100.1479182},{"code":130910,"code_cities":1309,"name":"PAGAI SELATAN","latitude":-3.0864203,"longitude":100.3947116},{"code":131001,"code_cities":1310,"name":"KOTO BARU","latitude":-1.1305805,"longitude":101.6840589},{"code":131002,"code_cities":1310,"name":"PULAU PUNJUNG","latitude":-1.0185929,"longitude":101.5020752},{"code":131003,"code_cities":1310,"name":"SUNGAI RUMBAI","latitude":-1.2150233,"longitude":101.7409946},{"code":131004,"code_cities":1310,"name":"SITIUNG","latitude":-1.0119,"longitude":101.654099},{"code":131005,"code_cities":1310,"name":"SEMBILAN KOTO","latitude":null,"longitude":null},{"code":131006,"code_cities":1310,"name":"TIMPEH","latitude":-0.8684997,"longitude":101.5930268},{"code":131007,"code_cities":1310,"name":"KOTO SALAK","latitude":-1.1302074,"longitude":101.7751709},{"code":131008,"code_cities":1310,"name":"TIUMANG","latitude":-1.0646102,"longitude":101.7409946},{"code":131009,"code_cities":1310,"name":"PADANG LAWEH","latitude":-1.0269235,"longitude":101.7865654},{"code":131010,"code_cities":1310,"name":"ASAM JUJUHAN","latitude":-1.5088262,"longitude":101.5930268},{"code":131011,"code_cities":1310,"name":"KOTO BESAR","latitude":-1.2251951,"longitude":101.5702813},{"code":131101,"code_cities":1311,"name":"SANGIR","latitude":-1.6055065,"longitude":101.2977322},{"code":131102,"code_cities":1311,"name":"SUNGAI PAGU","latitude":-1.4734556,"longitude":101.0938079},{"code":131103,"code_cities":1311,"name":"KOTO PARIK GADANG DIATEH","latitude":-1.3027408,"longitude":101.1164452},{"code":131104,"code_cities":1311,"name":"SANGIR JUJUAN","latitude":-1.4343571,"longitude":101.3204164},{"code":131105,"code_cities":1311,"name":"SANGIR BATANG HARI","latitude":-1.2263741,"longitude":101.2977322},{"code":131106,"code_cities":1311,"name":"PAUH DUO","latitude":null,"longitude":null},{"code":131107,"code_cities":1311,"name":"SANGIR BALAI JANGGO","latitude":-1.4525129,"longitude":101.47935},{"code":131201,"code_cities":1312,"name":"SUNGAIBEREMAS","latitude":null,"longitude":null},{"code":131202,"code_cities":1312,"name":"LEMBAH MELINTANG","latitude":null,"longitude":null},{"code":131203,"code_cities":1312,"name":"PASAMAN","latitude":0.1288752,"longitude":99.7901781},{"code":131204,"code_cities":1312,"name":"TALAMAU","latitude":0.2026327,"longitude":99.9241575},{"code":131205,"code_cities":1312,"name":"KINALI","latitude":-0.0367692,"longitude":99.8571416},{"code":131206,"code_cities":1312,"name":"GUNUNGTULEH","latitude":null,"longitude":null},{"code":131207,"code_cities":1312,"name":"RANAH BATAHAN","latitude":0.425484,"longitude":99.4783816},{"code":131208,"code_cities":1312,"name":"KOTO BALINGKA","latitude":0.3139919,"longitude":99.5228528},{"code":131209,"code_cities":1312,"name":"SUNGAIAUR","latitude":null,"longitude":null},{"code":131210,"code_cities":1312,"name":"LUHAK NAN DUO","latitude":0.0275782,"longitude":99.8013351},{"code":131211,"code_cities":1312,"name":"SASAK RANAH PESISIR","latitude":null,"longitude":null},{"code":137101,"code_cities":1371,"name":"PADANG SELATAN","latitude":-0.9801467,"longitude":100.3666326},{"code":137102,"code_cities":1371,"name":"PADANG TIMUR","latitude":-0.9425033,"longitude":100.3778632},{"code":137103,"code_cities":1371,"name":"PADANG BARAT","latitude":-0.9449121,"longitude":100.3582107},{"code":137104,"code_cities":1371,"name":"PADANG UTARA","latitude":-0.9143856,"longitude":100.3554035},{"code":137105,"code_cities":1371,"name":"BUNGUS TELUK KABUNG","latitude":-1.031713,"longitude":100.4284178},{"code":137106,"code_cities":1371,"name":"LUBUK BEGALUNG","latitude":-0.9622905,"longitude":100.403424},{"code":137107,"code_cities":1371,"name":"LUBUK KILANGAN","latitude":-0.9562395,"longitude":100.4958678},{"code":137108,"code_cities":1371,"name":"PAUH","latitude":-0.8717197,"longitude":100.5071143},{"code":137109,"code_cities":1371,"name":"KURANJI","latitude":-0.9001549,"longitude":100.4059456},{"code":137110,"code_cities":1371,"name":"NANGGALO","latitude":-0.8955743,"longitude":100.3666326},{"code":137111,"code_cities":1371,"name":"KOTO TANGAH","latitude":-0.7970019,"longitude":100.417181},{"code":137201,"code_cities":1372,"name":"LUBUK SIKARAH","latitude":-0.7918158,"longitude":100.614025},{"code":137202,"code_cities":1372,"name":"TANJUNG HARAPAN","latitude":-0.7636465,"longitude":100.659077},{"code":137301,"code_cities":1373,"name":"LEMBAH SEGAR","latitude":-0.6980341,"longitude":100.7605239},{"code":137302,"code_cities":1373,"name":"BARANGIN","latitude":-0.6748066,"longitude":100.7210593},{"code":137303,"code_cities":1373,"name":"SILUNGKANG","latitude":-0.7306306,"longitude":100.7887231},{"code":137304,"code_cities":1373,"name":"TALAWI","latitude":3.1638781,"longitude":99.5339744},{"code":137401,"code_cities":1374,"name":"PADANG PANJANG TIMUR","latitude":-0.4752964,"longitude":100.4227992},{"code":137402,"code_cities":1374,"name":"PADANG PANJANG BARAT","latitude":-0.4753478,"longitude":100.3890951},{"code":137501,"code_cities":1375,"name":"GUGUAK PANJANG","latitude":null,"longitude":null},{"code":137502,"code_cities":1375,"name":"MANDIANGIN K. SELAYAN","latitude":null,"longitude":null},{"code":137503,"code_cities":1375,"name":"AUR BIRUGO TIGO BALEH","latitude":-0.3200995,"longitude":100.386287},{"code":137601,"code_cities":1376,"name":"PAYAKUMBUH BARAT","latitude":-0.2344572,"longitude":100.6140211},{"code":137602,"code_cities":1376,"name":"PAYAKUMBUH UTARA","latitude":-0.2067837,"longitude":100.6365483},{"code":137603,"code_cities":1376,"name":"PAYAKUMBUH TIMUR","latitude":-0.2252024,"longitude":100.659077},{"code":137604,"code_cities":1376,"name":"LAMPOSI TIGO NAGORI","latitude":-0.2068065,"longitude":100.6027654},{"code":137605,"code_cities":1376,"name":"PAYAKUMBUH SELATAN","latitude":-0.2621263,"longitude":100.6252859},{"code":137701,"code_cities":1377,"name":"PARIAMAN TENGAH","latitude":-0.6247364,"longitude":100.1311163},{"code":137702,"code_cities":1377,"name":"PARIAMAN UTARA","latitude":-0.578133,"longitude":100.1199168},{"code":137703,"code_cities":1377,"name":"PARIAMAN SELATAN","latitude":-0.6433564,"longitude":100.1535196},{"code":137704,"code_cities":1377,"name":"PARIAMAN TIMUR","latitude":-0.6060592,"longitude":100.1423172},{"code":140101,"code_cities":1401,"name":"BANGKINANG KOTA","latitude":0.3413567,"longitude":101.0279545},{"code":140102,"code_cities":1401,"name":"KAMPAR","latitude":0.3042401,"longitude":101.2056307},{"code":140103,"code_cities":1401,"name":"TAMBANG","latitude":0.4045247,"longitude":101.2977322},{"code":140104,"code_cities":1401,"name":"XIII KOTO KAMPAR","latitude":0.1835694,"longitude":100.9354944},{"code":140105,"code_cities":1401,"name":"KUOK","latitude":0.3758518,"longitude":100.8569706},{"code":140106,"code_cities":1401,"name":"SIAK HULU","latitude":0.3303372,"longitude":101.5702813},{"code":140107,"code_cities":1401,"name":"KAMPAR KIRI","latitude":-0.0366199,"longitude":101.1164452},{"code":140108,"code_cities":1401,"name":"KAMPAR KIRI HILIR","latitude":0.1098278,"longitude":101.47935},{"code":140109,"code_cities":1401,"name":"KAMPAR KIRI HULU","latitude":-0.1835694,"longitude":100.9354944},{"code":140110,"code_cities":1401,"name":"TAPUNG","latitude":0.5530349,"longitude":101.1164452},{"code":140111,"code_cities":1401,"name":"TAPUNG HILIR","latitude":0.851239,"longitude":101.1164452},{"code":140112,"code_cities":1401,"name":"TAPUNG HULU","latitude":0.7771909,"longitude":100.8451467},{"code":140113,"code_cities":1401,"name":"SALO","latitude":0.3171475,"longitude":100.997658},{"code":140114,"code_cities":1401,"name":"RUMBIO JAYA","latitude":0.4139796,"longitude":101.1504111},{"code":140115,"code_cities":1401,"name":"BANGKINANG","latitude":0.3413567,"longitude":101.0279545},{"code":140116,"code_cities":1401,"name":"PERHENTIAN RAJA","latitude":0.3212907,"longitude":101.4225592},{"code":140117,"code_cities":1401,"name":"KAMPA","latitude":null,"longitude":null},{"code":140118,"code_cities":1401,"name":"KAMPAR UTARA","latitude":0.414076,"longitude":101.0824912},{"code":140119,"code_cities":1401,"name":"KAMPAR KIRI TENGAH","latitude":0.1649542,"longitude":101.3204164},{"code":140120,"code_cities":1401,"name":"GUNUNG SAHILAN","latitude":0.0182926,"longitude":101.3204164},{"code":140121,"code_cities":1401,"name":"KOTO KAMPAR HULU","latitude":0.4240781,"longitude":100.5521142},{"code":140201,"code_cities":1402,"name":"RENGAT","latitude":-0.3867129,"longitude":102.5423969},{"code":140202,"code_cities":1402,"name":"RENGAT BARAT","latitude":-0.3476828,"longitude":102.4151335},{"code":140203,"code_cities":1402,"name":"KELAYANG","latitude":-0.4586972,"longitude":102.0946818},{"code":140204,"code_cities":1402,"name":"PASIR PENYU","latitude":-0.3478654,"longitude":102.2776838},{"code":140205,"code_cities":1402,"name":"PERANAP","latitude":-0.7739574,"longitude":102.026135},{"code":140206,"code_cities":1402,"name":"SIBERIDA","latitude":null,"longitude":null},{"code":140207,"code_cities":1402,"name":"BATANG CENAKU","latitude":-0.7734273,"longitude":102.2090224},{"code":140208,"code_cities":1402,"name":"BATANG GANGSAL","latitude":null,"longitude":null},{"code":140209,"code_cities":1402,"name":"LIRIK","latitude":-0.2743649,"longitude":102.2776838},{"code":140210,"code_cities":1402,"name":"KUALA CENAKU","latitude":-0.1824135,"longitude":102.6675575},{"code":140211,"code_cities":1402,"name":"SUNGAI LALA","latitude":-0.4215803,"longitude":102.2319048},{"code":140212,"code_cities":1402,"name":"LUBUK BATU JAYA","latitude":-0.3480458,"longitude":102.1404037},{"code":140213,"code_cities":1402,"name":"RAKIT KULIM","latitude":-0.5508625,"longitude":102.2090224},{"code":140214,"code_cities":1402,"name":"BATANG PERANAP","latitude":-0.7744788,"longitude":101.8435568},{"code":140301,"code_cities":1403,"name":"BENGKALIS","latitude":1.489214,"longitude":102.080101},{"code":140302,"code_cities":1403,"name":"BANTAN","latitude":1.5047594,"longitude":102.3234816},{"code":140303,"code_cities":1403,"name":"BUKIT BATU","latitude":1.4129878,"longitude":101.7979613},{"code":140309,"code_cities":1403,"name":"MANDAU","latitude":1.3023345,"longitude":101.207047},{"code":140310,"code_cities":1403,"name":"RUPAT","latitude":1.8328705,"longitude":101.5702813},{"code":140311,"code_cities":1403,"name":"RUPAT UTARA","latitude":2.0051919,"longitude":101.5930268},{"code":140312,"code_cities":1403,"name":"SIAK KECIL","latitude":1.1483351,"longitude":101.9348069},{"code":140313,"code_cities":1403,"name":"PINGGIR","latitude":1.1127766,"longitude":101.4339148},{"code":140314,"code_cities":1403,"name":"BANDAR LAKSAMANA","latitude":null,"longitude":null},{"code":140315,"code_cities":1403,"name":"TALANG MUANDAU","latitude":null,"longitude":null},{"code":140316,"code_cities":1403,"name":"BATHIN SOLAPAN","latitude":null,"longitude":null},{"code":140401,"code_cities":1404,"name":"RETEH","latitude":-0.7147484,"longitude":103.2432632},{"code":140402,"code_cities":1404,"name":"ENOK","latitude":-0.4935896,"longitude":103.1509672},{"code":140403,"code_cities":1404,"name":"KUALA INDRAGIRI","latitude":-0.3096756,"longitude":103.4280586},{"code":140404,"code_cities":1404,"name":"TEMBILAHAN","latitude":-0.3221142,"longitude":103.1517902},{"code":140405,"code_cities":1404,"name":"TEMPULING","latitude":-0.4204515,"longitude":102.9205295},{"code":140406,"code_cities":1404,"name":"GAUNG ANAK SERKA","latitude":-0.1638152,"longitude":103.1509672},{"code":140407,"code_cities":1404,"name":"MANDAH","latitude":0.005932,"longitude":103.509399},{"code":140408,"code_cities":1404,"name":"KATEMAN","latitude":0.1816586,"longitude":103.682586},{"code":140409,"code_cities":1404,"name":"KERITANG","latitude":-0.697359,"longitude":102.8514837},{"code":140410,"code_cities":1404,"name":"TANAH MERAH","latitude":-0.4932154,"longitude":103.3356272},{"code":140411,"code_cities":1404,"name":"BATANG TUAKA","latitude":-0.2368962,"longitude":103.1048449},{"code":140412,"code_cities":1404,"name":"GAUNG","latitude":-0.0727927,"longitude":102.8975098},{"code":140413,"code_cities":1404,"name":"TEMBILAHAN HULU","latitude":-0.420139,"longitude":103.1048449},{"code":140414,"code_cities":1404,"name":"KEMUNING","latitude":-0.8977236,"longitude":102.6774118},{"code":140415,"code_cities":1404,"name":"PELANGIRAN","latitude":0.1818707,"longitude":103.4049445},{"code":140416,"code_cities":1404,"name":"TELUK BELENGKONG","latitude":0.2732157,"longitude":103.3356272},{"code":140417,"code_cities":1404,"name":"PULAU BURUNG","latitude":0.4012798,"longitude":103.4049445},{"code":140418,"code_cities":1404,"name":"CONCONG","latitude":-0.2728988,"longitude":103.6131203},{"code":140419,"code_cities":1404,"name":"KEMPAS","latitude":-0.5311929,"longitude":102.7824777},{"code":140420,"code_cities":1404,"name":"SUNGAI BATANG","latitude":-0.6224273,"longitude":103.2201828},{"code":140501,"code_cities":1405,"name":"UKUI","latitude":-0.219577,"longitude":101.9804613},{"code":140502,"code_cities":1405,"name":"PANGKALAN KERINCI","latitude":0.3483999,"longitude":101.866362},{"code":140503,"code_cities":1405,"name":"PANGKALAN KURAS","latitude":0.0365134,"longitude":101.9348069},{"code":140504,"code_cities":1405,"name":"PANGKALAN LESUNG","latitude":-0.0364886,"longitude":102.1175404},{"code":140505,"code_cities":1405,"name":"LANGGAM","latitude":0.1097564,"longitude":101.6612934},{"code":140506,"code_cities":1405,"name":"PELALAWAN","latitude":0.441415,"longitude":102.088699},{"code":140507,"code_cities":1405,"name":"KERUMUTAN","latitude":-0.0364506,"longitude":102.3922135},{"code":140508,"code_cities":1405,"name":"BUNUT","latitude":0.2561666,"longitude":102.1175404},{"code":140509,"code_cities":1405,"name":"TELUK MERANTI","latitude":0.5128922,"longitude":102.7135121},{"code":140510,"code_cities":1405,"name":"KUALA KAMPAR","latitude":0.6224273,"longitude":103.2201828},{"code":140511,"code_cities":1405,"name":"BANDAR SEI KIJANG","latitude":null,"longitude":null},{"code":140512,"code_cities":1405,"name":"BANDAR PETALANGAN","latitude":0.1278328,"longitude":102.1861447},{"code":140601,"code_cities":1406,"name":"UJUNG BATU","latitude":0.6845114,"longitude":100.5521142},{"code":140602,"code_cities":1406,"name":"ROKAN IV KOTO","latitude":0.5545185,"longitude":100.3048897},{"code":140603,"code_cities":1406,"name":"RAMBAH","latitude":0.834828,"longitude":100.2824483},{"code":140604,"code_cities":1406,"name":"TAMBUSAI","latitude":1.0792504,"longitude":100.3048897},{"code":140605,"code_cities":1406,"name":"KEPENUHAN","latitude":1.1346438,"longitude":100.6421799},{"code":140606,"code_cities":1406,"name":"KUNTO DARUSSALAM","latitude":0.9087122,"longitude":100.6872457},{"code":140607,"code_cities":1406,"name":"RAMBAH SAMO","latitude":0.8344696,"longitude":100.417181},{"code":140608,"code_cities":1406,"name":"RAMBAH HILIR","latitude":0.9848328,"longitude":100.3722477},{"code":140609,"code_cities":1406,"name":"TAMBUSAI UTARA","latitude":1.3062345,"longitude":100.3048897},{"code":140610,"code_cities":1406,"name":"BANGUN PURBA","latitude":3.3593222,"longitude":98.8142264},{"code":140611,"code_cities":1406,"name":"TANDUN","latitude":0.5726011,"longitude":100.5971361},{"code":140612,"code_cities":1406,"name":"KABUN","latitude":0.4794201,"longitude":100.7548851},{"code":140613,"code_cities":1406,"name":"BONAI DARUSSALAM","latitude":1.152742,"longitude":100.8451467},{"code":140614,"code_cities":1406,"name":"PAGARAN TAPAH DARUSSALAM","latitude":0.759127,"longitude":100.5971361},{"code":140615,"code_cities":1406,"name":"KEPENUHAN HULU","latitude":1.0220378,"longitude":100.5071143},